[{"name":"1015 Folsom","address":"1015 Folsom Street","city":"San Francisco","state":"CA","zip":"94103","lat":"37.7781117","lng":"-122.4058001"},{"name":"15 Romolo","address":"15 Romolo Place","city":"San Francisco","state":"CA","zip":"94133","lat":"37.7981224","lng":"-122.4063339"},{"name":"21st Amendment Brewery Cafe","address":"563 2nd Street","city":"San Francisco","state":"CA","zip":"94107","lat":"37.78252790000001","lng":"-122.3924578"},{"name":"24th Street Bar","address":"3336 24th Street","city":"San Francisco","state":"CA","zip":"94110","lat":"37.7522878","lng":"-122.4192745"},{"name":"440","address":"440 Castro Street","city":"San Francisco","state":"CA","zip":"94114","lat":"37.7618335","lng":"-122.4352736"},{"name":"4th Street Bar and Grill","address":"55 4th Street","city":"San Francisco","state":"CA","zip":"94103","lat":"37.7851477","lng":"-122.404502"},{"name":"54 Mint Wine Bar","address":"16 Mint Plaza","city":"San Francisco","state":"CA","zip":"94103","lat":"37.7825772","lng":"-122.4079813"},{"name":"540 Club","address":"540 Clement Street","city":"San Francisco","state":"CA","zip":"94118","lat":"37.7831477","lng":"-122.4651785"},{"name":"5A5 Steak Lounge","address":"244 Jackson Street","city":"San Francisco","state":"CA","zip":"94111","lat":"37.7970266","lng":"-122.4002792"},{"name":"83 Proof","address":"83 1st Street","city":"San Francisco","state":"CA","zip":"94105","lat":"37.7900567","lng":"-122.3977007"},{"name":"Abbey Tavern","address":"4100 Geary Boulevard","city":"San Francisco","state":"CA","zip":"94118","lat":"37.7812691","lng":"-122.4633654"},{"name":"Absinthe Brasserie &amp; Bar","address":"398 Hayes Street","city":"San Francisco","state":"CA","zip":"94102","lat":"37.7771042","lng":"-122.4227403"},{"name":"Abv","address":"3174 16th Street","city":"San Francisco","state":"CA","zip":"94103","lat":"37.765043","lng":"-122.4235763"},{"name":"ABV","address":"3174 16th Street","city":"San Francisco","state":"CA","zip":"94103","lat":"37.765043","lng":"-122.4235763"},{"name":"Ace&#x27;s","address":"998 Sutter Street","city":"San Francisco","state":"CA","zip":"94109","lat":"37.7884376","lng":"-122.4167129"},{"name":"Alchemist Bar &amp; Lounge","address":"679 3rd Street","city":"San Francisco","state":"CA","zip":"94107","lat":"37.7792561","lng":"-122.3930809"},{"name":"Ales Unlimited Basement","address":"222 Hyde Street","city":"San Francisco","state":"CA","zip":"94102","lat":"37.78295019999999","lng":"-122.415646"},{"name":"Aliment","address":"786 Bush Street","city":"San Francisco","state":"CA","zip":"94108","lat":"37.7901405","lng":"-122.4102139"},{"name":"Alioto&#x27;s","address":"8 Fishermans Wharf","city":"San Francisco","state":"CA","zip":"94133","lat":"37.8086803","lng":"-122.4161115"},{"name":"AMD Project","address":"198 Church Street","city":"San Francisco","state":"CA","zip":"94114","lat":"37.7678879","lng":"-122.4291839"},{"name":"Ame Restaurant","address":"689 Mission Street","city":"San Francisco","state":"CA","zip":"94105","lat":"37.7862394","lng":"-122.4016405"},{"name":"Amelie","address":"1754 Polk Street","city":"San Francisco","state":"CA","zip":"94109","lat":"37.7931093","lng":"-122.4209725"},{"name":"Americano","address":"8 Mission Street","city":"San Francisco","state":"CA","zip":"94105","lat":"37.7936821","lng":"-122.3934093"},{"name":"Amnesia","address":"853 Valencia Street","city":"San Francisco","state":"CA","zip":"94110","lat":"37.759309","lng":"-122.4210613"},{"name":"Another Monkey","address":"280 Valencia Street","city":"San Francisco","state":"CA","zip":"94103","lat":"37.7685083","lng":"-122.4225439"},{"name":"Arabian Nights Restaurant","address":"2345 Mission Street","city":"San Francisco","state":"CA","zip":"94110","lat":"37.7595264","lng":"-122.4188031"},{"name":"Argus Lounge","address":"3187 Mission Street","city":"San Francisco","state":"CA","zip":"94110","lat":"37.7458783","lng":"-122.4195416"},{"name":"AsiaSF","address":"201 9th Street","city":"San Francisco","state":"CA","zip":"94103","lat":"37.7750692","lng":"-122.4127915"},{"name":"Atami Sushi Bar &amp; Grill","address":"1662 Lombard Street","city":"San Francisco","state":"CA","zip":"94123","lat":"37.8009568","lng":"-122.4289359"},{"name":"Atlas Cafe","address":"3049 20th Street","city":"San Francisco","state":"CA","zip":"94110","lat":"37.7589411","lng":"-122.411453"},{"name":"Atlas Tap Room","address":"606 Mission Street","city":"San Francisco","state":"CA","zip":"94105","lat":"37.7879523","lng":"-122.4002209"},{"name":"ATwater Tavern","address":"295 Terry A Francois Boulevard","city":"San Francisco","state":"CA","zip":"94158","lat":"37.774311","lng":"-122.3872211"},{"name":"Aunt Charlies Lounge","address":"133 Turk Street","city":"San Francisco","state":"CA","zip":"94102","lat":"37.7830381","lng":"-122.4113722"},{"name":"Avenue Lounge","address":"1334 Noriega Street","city":"San Francisco","state":"CA","zip":"94122","lat":"37.7543693","lng":"-122.478202"},{"name":"Azucar Lounge","address":"299 9th Street","city":"San Francisco","state":"CA","zip":"94103","lat":"37.7739373","lng":"-122.4116232"},{"name":"B Restaurant &amp; Bar","address":"720 Howard Street","city":"San Francisco","state":"CA","zip":"94103","lat":"37.7844758","lng":"-122.4019203"},{"name":"Bacchus Kirk","address":"925 Bush Street","city":"San Francisco","state":"CA","zip":"94109","lat":"37.7894696","lng":"-122.4125039"},{"name":"Badlands","address":"4121 18th Street","city":"San Francisco","state":"CA","zip":"94114","lat":"37.7607065","lng":"-122.4354659"},{"name":"Bamboo Hut","address":"479 Broadway","city":"San Francisco","state":"CA","zip":"94133","lat":"37.7979112","lng":"-122.405101"},{"name":"Banshee Bar","address":"640 Post Street","city":"San Francisco","state":"CA","zip":"94109","lat":"37.787962","lng":"-122.4124776"},{"name":"Bar 1915","address":"524 Sutter Street","city":"San Francisco","state":"CA","zip":"94102","lat":"37.789438","lng":"-122.4091998"},{"name":"Bar 333","address":"333 Battery Street","city":"San Francisco","state":"CA","zip":"94111","lat":"37.79467289999999","lng":"-122.400844"},{"name":"Bar 587","address":"587 Post Street","city":"San Francisco","state":"CA","zip":"94102","lat":"37.7877655","lng":"-122.4114052"},{"name":"Bar 821","address":"821 Divisadero Street","city":"San Francisco","state":"CA","zip":"94117","lat":"37.777211","lng":"-122.438483"},{"name":"Bar 888","address":"888 Howard Street","city":"San Francisco","state":"CA","zip":"94103","lat":"37.7822079","lng":"-122.4048266"},{"name":"Bar Agricole","address":"355 11th Street","city":"San Francisco","state":"CA","zip":"94103","lat":"37.7715427","lng":"-122.41288"},{"name":"Bar and restaraunt","address":"121 7th Street","city":"San Francisco","state":"CA","zip":"94103","lat":"37.7788006","lng":"-122.4102065"},{"name":"Bar Basic","address":"510 Brannan Street","city":"San Francisco","state":"CA","zip":"94107","lat":"37.778271","lng":"-122.3971046"},{"name":"Bar Crudo","address":"603 Bush Street","city":"San Francisco","state":"CA","zip":"94108","lat":"37.7901463","lng":"-122.407427"},{"name":"Bar Drake","address":"450 Powell Street","city":"San Francisco","state":"CA","zip":"94102","lat":"37.7890363","lng":"-122.4083445"},{"name":"Bar None","address":"1980 Union Street","city":"San Francisco","state":"CA","zip":"94123","lat":"37.7977267","lng":"-122.4319881"},{"name":"Bar Norcini","address":"225 Powell Street","city":"San Francisco","state":"CA","zip":"94102","lat":"37.7868784","lng":"-122.4083585"},{"name":"Bar San Pancho","address":"3198 16th Street","city":"San Francisco","state":"CA","zip":"94103","lat":"37.7650777","lng":"-122.4239922"},{"name":"Bar Vero","address":"4230 18th Street","city":"San Francisco","state":"CA","zip":"94114","lat":"37.7609919","lng":"-122.4368372"},{"name":"Barney&#x27;s Gourmet Hamburgers","address":"4138 24th Street","city":"San Francisco","state":"CA","zip":"94114","lat":"37.7514607","lng":"-122.4350231"},{"name":"Bartlett Hall","address":"242 O&#x27;Farrell Street","city":"San Francisco","state":"CA","zip":"94102","lat":"37.7864953","lng":"-122.4087511"},{"name":"Beach Chalet Brewery &amp; Restaurant","address":"1000 Great Highway","city":"San Francisco","state":"CA","zip":"94121","lat":"37.7694872","lng":"-122.5101792"},{"name":"Beachside Cafe","address":"4300 Judah Street","city":"San Francisco","state":"CA","zip":"94122","lat":"37.7604374","lng":"-122.5082526"},{"name":"Beauty Bar","address":"2299 Mission Street","city":"San Francisco","state":"CA","zip":"94110","lat":"37.7603652","lng":"-122.4190216"},{"name":"Benders Bar and Grill","address":"806 Van Ness Avenue","city":"San Francisco","state":"CA","zip":"94109","lat":"37.7830918","lng":"-122.4206015"},{"name":"Beretta","address":"1199 Valencia Street","city":"San Francisco","state":"CA","zip":"94110","lat":"37.7538422","lng":"-122.4206999"},{"name":"Bergerac","address":"316 11th Street","city":"San Francisco","state":"CA","zip":"94103","lat":"37.771391","lng":"-122.413852"},{"name":"Big Bar","address":"98 Turk Street","city":"San Francisco","state":"CA","zip":"94102","lat":"37.783492","lng":"-122.4105791"},{"name":"Billiard Palacade","address":"5179 Mission Street","city":"San Francisco","state":"CA","zip":"94112","lat":"37.7157978","lng":"-122.4413135"},{"name":"Bimbo&#x27;s 365 Club","address":"1025 Columbus Avenue","city":"San Francisco","state":"CA","zip":"94133","lat":"37.8036989","lng":"-122.4156675"},{"name":"Bin 38","address":"3232 Scott Street","city":"San Francisco","state":"CA","zip":"94123","lat":"37.7997516","lng":"-122.4409183"},{"name":"Bin 480 Bar &amp; Bistro in Marriott on Union Square","address":"480 Sutter Street","city":"San Francisco","state":"CA","zip":"94108","lat":"37.7894575","lng":"-122.4083666"},{"name":"Bin 55","address":"780 Mission Street","city":"San Francisco","state":"CA","zip":"94103","lat":"37.7854871","lng":"-122.4046939"},{"name":"Bistro Sf Grill","address":"2819 California Street","city":"San Francisco","state":"CA","zip":"94115","lat":"37.7878544","lng":"-122.4408075"},{"name":"Bitter Badger","address":"1548 California Street","city":"San Francisco","state":"CA","zip":"94109","lat":"37.7908975","lng":"-122.4199171"},{"name":"Bix Restaurant","address":"56 Gold Street","city":"San Francisco","state":"CA","zip":"94133","lat":"37.7968486","lng":"-122.4029681"},{"name":"Black Magic","address":"1400 Lombard Street","city":"San Francisco","state":"CA","zip":"94123","lat":"37.8014508","lng":"-122.4248601"},{"name":"Black Sands","address":"701 Haight Street","city":"San Francisco","state":"CA","zip":"94117","lat":"37.771455","lng":"-122.433855"},{"name":"Blackbird","address":"2124 Market Street","city":"San Francisco","state":"CA","zip":"94114","lat":"37.7673056","lng":"-122.4296196"},{"name":"Blackthorn","address":"834 Irving Street","city":"San Francisco","state":"CA","zip":"94122","lat":"37.7642356","lng":"-122.467047"},{"name":"Blanc et Rouge","address":"2 Embarcadero Center","city":"San Francisco","state":"CA","zip":"94111","lat":"37.7949888","lng":"-122.3986798"},{"name":"Blondie&#x27;s Bar and No Grill","address":"540 Valencia Street","city":"San Francisco","state":"CA","zip":"94110","lat":"37.764216","lng":"-122.4221214"},{"name":"Bloodhound","address":"1145 Folsom Street","city":"San Francisco","state":"CA","zip":"94103","lat":"37.7758151","lng":"-122.4088179"},{"name":"Blow Buddies","address":"933 Harrison Street","city":"San Francisco","state":"CA","zip":"94107","lat":"37.7782908","lng":"-122.4023707"},{"name":"Blue Cellars","address":"325 Prentiss Street","city":"San Francisco","state":"CA","zip":"94110","lat":"37.7393091","lng":"-122.4119287"},{"name":"Blue Mermaid","address":"471 Jefferson Street","city":"San Francisco","state":"CA","zip":"94109","lat":"37.8075005","lng":"-122.4201723"},{"name":"Blue Pea","address":"525 Valencia Street","city":"San Francisco","state":"CA","zip":"94110","lat":"37.7644322","lng":"-122.421613"},{"name":"Blueprint Tap Room","address":"680 8th Street","city":"San Francisco","state":"CA","zip":"94103","lat":"37.7703495","lng":"-122.4046496"},{"name":"Blur","address":"1121 Polk Street","city":"San Francisco","state":"CA","zip":"94109","lat":"37.7872025","lng":"-122.4201382"},{"name":"Blush! Wine Bar","address":"476 Castro Street","city":"San Francisco","state":"CA","zip":"94114","lat":"37.76127640000001","lng":"-122.4352284"},{"name":"Bobo&#x27;s Lounge","address":"1434 Lombard Street","city":"San Francisco","state":"CA","zip":"94123","lat":"37.801407","lng":"-122.4252717"},{"name":"Boboquivari&#x27;s","address":"420 Columbus Avenue","city":"San Francisco","state":"CA","zip":"94133","lat":"37.7990468","lng":"-122.408133"},{"name":"Bocadillos","address":"710 Montgomery Street","city":"San Francisco","state":"CA","zip":"94111","lat":"37.7958011","lng":"-122.4031672"},{"name":"Bocce Cafe","address":"478 Green Street","city":"San Francisco","state":"CA","zip":"94133","lat":"37.7998525","lng":"-122.4072593"},{"name":"Boho","address":"3321 Steiner Street","city":"San Francisco","state":"CA","zip":"94123","lat":"37.8000326","lng":"-122.438117"},{"name":"Bon Marche Brasserie &amp; Bar","address":"1355 Market Street","city":"San Francisco","state":"CA","zip":"94103","lat":"37.7768337","lng":"-122.4163755"},{"name":"Bond Bar","address":"3079 16th Street","city":"San Francisco","state":"CA","zip":"94103","lat":"37.7648256","lng":"-122.4213253"},{"name":"BooM BooM RooM","address":"1601 Fillmore Street","city":"San Francisco","state":"CA","zip":"94115","lat":"37.7846033","lng":"-122.4331655"},{"name":"Boomerang Cocktail Lounge","address":"1430 Noriega Street","city":"San Francisco","state":"CA","zip":"94122","lat":"37.7543419","lng":"-122.479197"},{"name":"Boss Nightclub","address":"750 Harrison Street","city":"San Francisco","state":"CA","zip":"94107","lat":"37.7819101","lng":"-122.3988305"},{"name":"Bottom of the Hill","address":"1233 17th Street","city":"San Francisco","state":"CA","zip":"94107","lat":"37.7649597","lng":"-122.3964408"},{"name":"Bottoms Up Bar &amp; Lounge","address":"4704 Mission Street","city":"San Francisco","state":"CA","zip":"94112","lat":"37.7229633","lng":"-122.4362963"},{"name":"Bourbon &amp; Branch","address":"501 Jones Street","city":"San Francisco","state":"CA","zip":"94102","lat":"37.7858891","lng":"-122.4131245"},{"name":"Brasserie S &amp; P","address":"222 Sansome Street","city":"San Francisco","state":"CA","zip":"94104","lat":"37.7924577","lng":"-122.4007857"},{"name":"Brewcade","address":"2200 Market Street","city":"San Francisco","state":"CA","zip":"94114","lat":"37.7657731","lng":"-122.4316196"},{"name":"Brick House Cafe","address":"426 Brannan Street","city":"San Francisco","state":"CA","zip":"94107","lat":"37.7796646","lng":"-122.3952601"},{"name":"Broadway Studios","address":"435 Broadway","city":"San Francisco","state":"CA","zip":"94133","lat":"37.7980182","lng":"-122.4044996"},{"name":"Broken Record","address":"1166 Geneva Avenue","city":"San Francisco","state":"CA","zip":"94112","lat":"37.7143337","lng":"-122.4369709"},{"name":"Bruno&#x27;s","address":"2389 Mission Street","city":"San Francisco","state":"CA","zip":"94110","lat":"37.7589582","lng":"-122.4188289"},{"name":"Buck Tavern","address":"1655 Market Street","city":"San Francisco","state":"CA","zip":"94103","lat":"37.773241","lng":"-122.421262"},{"name":"Buckshop Bar and Gameroom","address":"3848 Geary Boulevard","city":"San Francisco","state":"CA","zip":"94118","lat":"37.7814258","lng":"-122.4608333"},{"name":"Buckshot Bar and Gameroom","address":"3828 Geary Boulevard","city":"San Francisco","state":"CA","zip":"94118","lat":"37.781548","lng":"-122.460573"},{"name":"Buddha Lounge","address":"901 Grant Avenue","city":"San Francisco","state":"CA","zip":"94108","lat":"37.795279","lng":"-122.40667"},{"name":"Buena Vista","address":"2765 Hyde Street","city":"San Francisco","state":"CA","zip":"94109","lat":"37.8065278","lng":"-122.4207822"},{"name":"Buffalo Theory","address":"1735 Polk Street","city":"San Francisco","state":"CA","zip":"94109","lat":"37.792899","lng":"-122.4213359"},{"name":"Bullitt","address":"2209 Polk Street","city":"San Francisco","state":"CA","zip":"94109","lat":"37.7971043","lng":"-122.422216"},{"name":"Bus Stop","address":"1901 Union Street","city":"San Francisco","state":"CA","zip":"94123","lat":"37.7976083","lng":"-122.4306986"},{"name":"Butter","address":"354 11th Street","city":"San Francisco","state":"CA","zip":"94103","lat":"37.7710462","lng":"-122.4133446"},{"name":"Buzz Works Sports Tavern","address":"365 11th Street","city":"San Francisco","state":"CA","zip":"94103","lat":"37.7712896","lng":"-122.4129159"},{"name":"Buzz Works Sports Tavern","address":"365 11th Avenue","city":"San Francisco","state":"CA","zip":"94118","lat":"37.7815232","lng":"-122.4699477"},{"name":"Cabin","address":"1750 Polk Street","city":"San Francisco","state":"CA","zip":"94109","lat":"37.79304","lng":"-122.4210806"},{"name":"Cable Car City Pub &amp; Cafe","address":"1 Hallidie Plaza","city":"San Francisco","state":"CA","zip":"94102","lat":"37.78412489999999","lng":"-122.4088579"},{"name":"Cafe Divis","address":"359 Divisadero Street","city":"San Francisco","state":"CA","zip":"94117","lat":"37.7730052","lng":"-122.4375768"},{"name":"Cafe Flore","address":"2298 Market Street","city":"San Francisco","state":"CA","zip":"94114","lat":"37.7646778","lng":"-122.4329332"},{"name":"Cafe Majestic","address":"1500 Sutter Street","city":"San Francisco","state":"CA","zip":"94109","lat":"37.7872575","lng":"-122.4254455"},{"name":"Cafe Maria Restaurant","address":"1548 Stockton Street","city":"San Francisco","state":"CA","zip":"94133","lat":"37.800124","lng":"-122.4088995"},{"name":"Cafe Meuse","address":"1400 Pacific Avenue","city":"San Francisco","state":"CA","zip":"94109","lat":"37.7955549","lng":"-122.4184725"},{"name":"Cafe Mystique","address":"2369 Market Street","city":"San Francisco","state":"CA","zip":"94114","lat":"37.7629801","lng":"-122.4343502"},{"name":"Cafe Zoetrope","address":"916 Kearny Street","city":"San Francisco","state":"CA","zip":"94133","lat":"37.7965367","lng":"-122.4050421"},{"name":"California Wine Merchant","address":"2113 Chestnut Street","city":"San Francisco","state":"CA","zip":"94123","lat":"37.8004043","lng":"-122.4381975"},{"name":"Calzone&#x27;s Pizza Cucina","address":"430 Columbus Avenue","city":"San Francisco","state":"CA","zip":"94133","lat":"37.7991021","lng":"-122.4081675"},{"name":"Campanula Kitchen and Bar","address":"701 Union Street","city":"San Francisco","state":"CA","zip":"94133","lat":"37.8000413","lng":"-122.4110437"},{"name":"Campus","address":"2241 Chestnut Street","city":"San Francisco","state":"CA","zip":"94123","lat":"37.8001603","lng":"-122.440202"},{"name":"Cancholas Bar","address":"3775 Mission Street","city":"San Francisco","state":"CA","zip":"94110","lat":"37.7362878","lng":"-122.4241514"},{"name":"Cantina","address":"580 Sutter Street","city":"San Francisco","state":"CA","zip":"94108","lat":"37.7892655","lng":"-122.4099596"},{"name":"Capurro&#x27;s","address":"498 Jefferson Street","city":"San Francisco","state":"CA","zip":"94109","lat":"37.8078414","lng":"-122.4202248"},{"name":"Casanova Lounge","address":"527 Valencia Street","city":"San Francisco","state":"CA","zip":"94110","lat":"37.7643936","lng":"-122.4216627"},{"name":"Cat Club","address":"1190 Folsom Street","city":"San Francisco","state":"CA","zip":"94103","lat":"37.775454","lng":"-122.410026"},{"name":"Causwells","address":"2346 Chestnut Street","city":"San Francisco","state":"CA","zip":"94123","lat":"37.8002501","lng":"-122.4419978"},{"name":"Cellars 360","address":"900 North Point Street","city":"San Francisco","state":"CA","zip":"94109","lat":"37.8056739","lng":"-122.4223763"},{"name":"Cesar&#x27;s Latin Palace","address":"820 26th Street","city":"San Francisco","state":"CA","zip":"94107","lat":"37.7516788","lng":"-122.388126"},{"name":"Chelsea Place","address":"641 Bush Street","city":"San Francisco","state":"CA","zip":"94108","lat":"37.7901727","lng":"-122.4079017"},{"name":"Chief Sullivan&#x27;s","address":"622 Green Street","city":"San Francisco","state":"CA","zip":"94133","lat":"37.7995614","lng":"-122.4096741"},{"name":"China Town Business Pub Co","address":"695 26th Avenue","city":"San Francisco","state":"CA","zip":"94121","lat":"37.776386","lng":"-122.485796"},{"name":"Chowder Hut Grill","address":"2890 Taylor Street","city":"San Francisco","state":"CA","zip":"94133","lat":"37.8087857","lng":"-122.4156122"},{"name":"Cigar Bar &amp; Grill","address":"850 Montgomery Street","city":"San Francisco","state":"CA","zip":"94133","lat":"37.7972336","lng":"-122.4034106"},{"name":"Citrus Club","address":"1790 Haight Street","city":"San Francisco","state":"CA","zip":"94117","lat":"37.769602","lng":"-122.4516209"},{"name":"City Beer Store","address":"1148 Mission Street","city":"San Francisco","state":"CA","zip":"94103","lat":"37.7784838","lng":"-122.4121893"},{"name":"City Club","address":"2919 16th Street","city":"San Francisco","state":"CA","zip":"94103","lat":"37.7650069","lng":"-122.4180221"},{"name":"City Nights","address":"715 Harrison Street","city":"San Francisco","state":"CA","zip":"94107","lat":"37.7820285","lng":"-122.3976578"},{"name":"Civic Restaurant &amp; Bar","address":"272 McAllister Street","city":"San Francisco","state":"CA","zip":"94102","lat":"37.780678","lng":"-122.4165625"},{"name":"Cleriti Club","address":"444 Cole Street","city":"San Francisco","state":"CA","zip":"94117","lat":"37.77085040000001","lng":"-122.4502782"},{"name":"Cliff House","address":"1090 Point Lobos Avenue","city":"San Francisco","state":"CA","zip":"94121","lat":"37.778507","lng":"-122.5139808"},{"name":"Clock Bar","address":"335 Powell Street","city":"San Francisco","state":"CA","zip":"94102","lat":"37.7877258","lng":"-122.4084761"},{"name":"Clooney&#x27;s Pub","address":"1401 Valencia Street","city":"San Francisco","state":"CA","zip":"94110","lat":"37.7504268","lng":"-122.4202389"},{"name":"Club Buster","address":"2955 Geary Boulevard","city":"San Francisco","state":"CA","zip":"94118","lat":"37.7816741","lng":"-122.4509038"},{"name":"Club Deluxe","address":"1511 Haight Street","city":"San Francisco","state":"CA","zip":"94117","lat":"37.76976860000001","lng":"-122.4471395"},{"name":"Club Kristi","address":"782 O&#x27;Farrell Street","city":"San Francisco","state":"CA","zip":"94109","lat":"37.7853591","lng":"-122.4175382"},{"name":"Club Luxx","address":"60 6th Street","city":"San Francisco","state":"CA","zip":"94103","lat":"37.781318","lng":"-122.4095816"},{"name":"Club Malibu","address":"3395 Mission Street","city":"San Francisco","state":"CA","zip":"94110","lat":"37.7423116","lng":"-122.4217291"},{"name":"Club Minibar-Downtown","address":"500 Sutter Street","city":"San Francisco","state":"CA","zip":"94108","lat":"37.789497","lng":"-122.4090103"},{"name":"Club Omg","address":"43 6th Street","city":"San Francisco","state":"CA","zip":"94103","lat":"37.7818047","lng":"-122.4093351"},{"name":"Cobb&#x27;s Comedy Club","address":"915 Columbus Avenue","city":"San Francisco","state":"CA","zip":"94133","lat":"37.802989","lng":"-122.4143902"},{"name":"Cockblock","address":"155 Fell Street","city":"San Francisco","state":"CA","zip":"94102","lat":"37.7760033","lng":"-122.4204681"},{"name":"Coco&#x27;s Bar","address":"4541 Mission Street","city":"San Francisco","state":"CA","zip":"94112","lat":"37.7254859","lng":"-122.4338983"},{"name":"Coda","address":"1710 Mission Street","city":"San Francisco","state":"CA","zip":"94103","lat":"37.7697394","lng":"-122.4203797"},{"name":"Coin-Op Game Room","address":"508 4th Street","city":"San Francisco","state":"CA","zip":"94107","lat":"37.7792122","lng":"-122.3981003"},{"name":"Comedy on the Square","address":"244 Taylor Street","city":"San Francisco","state":"CA","zip":"94102","lat":"37.7847535","lng":"-122.4109583"},{"name":"Comet Club","address":"3111 Fillmore Street","city":"San Francisco","state":"CA","zip":"94123","lat":"37.7982121","lng":"-122.4359692"},{"name":"Concordia Argonaut","address":"1142 Van Ness Avenue","city":"San Francisco","state":"CA","zip":"94109","lat":"37.7863845","lng":"-122.4211832"},{"name":"Cotters Corner","address":"4431 Mission Street","city":"San Francisco","state":"CA","zip":"94112","lat":"37.7272004","lng":"-122.4326241"},{"name":"Cozmo&#x27;s Corner Grill","address":"2001 Chestnut Street","city":"San Francisco","state":"CA","zip":"94123","lat":"37.8006268","lng":"-122.436417"},{"name":"Craft On Draught","address":"4054 24th Street","city":"San Francisco","state":"CA","zip":"94114","lat":"37.7515187","lng":"-122.4331843"},{"name":"Cresta&#x27;s Twenty Two Eleven Club","address":"2211 Polk Street","city":"San Francisco","state":"CA","zip":"94109","lat":"37.7971311","lng":"-122.4221693"},{"name":"Crystal Jade Jiang Nan","address":"4 Embarcadero Center","city":"San Francisco","state":"CA","zip":"94111","lat":"37.7953898","lng":"-122.3961067"},{"name":"Cyprus Grill","address":"99 Harding Road","city":"San Francisco","state":"CA","zip":"94132","lat":"37.7259422","lng":"-122.492665"},{"name":"Dada Sf Studio","address":"65 Post Street","city":"San Francisco","state":"CA","zip":"94104","lat":"37.7888479","lng":"-122.4031082"},{"name":"Dalva","address":"3121 16th Street","city":"San Francisco","state":"CA","zip":"94103","lat":"37.7646713","lng":"-122.4224603"},{"name":"Danny Coyle&#x27;s","address":"668 Haight Street","city":"San Francisco","state":"CA","zip":"94117","lat":"37.7719452","lng":"-122.4332982"},{"name":"Dark Horse Inn","address":"942 Geneva Avenue","city":"San Francisco","state":"CA","zip":"94112","lat":"37.7159079","lng":"-122.4405531"},{"name":"Dave&#x27;s","address":"29 3rd Street","city":"San Francisco","state":"CA","zip":"94103","lat":"37.7872399","lng":"-122.4029415"},{"name":"Dear Mom","address":"2700 16th Street","city":"San Francisco","state":"CA","zip":"94103","lat":"37.765601","lng":"-122.4133594"},{"name":"Delirium Cocktails","address":"3139 16th Street","city":"San Francisco","state":"CA","zip":"94103","lat":"37.764726","lng":"-122.4227528"},{"name":"Dell&#x27;uva","address":"3235 Mission Street","city":"San Francisco","state":"CA","zip":"94110","lat":"37.7450537","lng":"-122.4199261"},{"name":"Dimples","address":"1700 Post Street","city":"San Francisco","state":"CA","zip":"94115","lat":"37.7857557","lng":"-122.4301162"},{"name":"Dirty Trix Saloon","address":"408 Clement Street","city":"San Francisco","state":"CA","zip":"94118","lat":"37.7832175","lng":"-122.4637743"},{"name":"District Wine Lounge","address":"216 Townsend Street","city":"San Francisco","state":"CA","zip":"94107","lat":"37.7786338","lng":"-122.3933195"},{"name":"Diva Karaoke","address":"20 12th Street","city":"San Francisco","state":"CA","zip":"94103","lat":"37.7739974","lng":"-122.4199986"},{"name":"Diva&#x27;s","address":"1081 Post Street","city":"San Francisco","state":"CA","zip":"94109","lat":"37.7866128","lng":"-122.4194948"},{"name":"Divisadero Sports Bar","address":"1750 Divisadero Street","city":"San Francisco","state":"CA","zip":"94115","lat":"37.7860568","lng":"-122.439785"},{"name":"DNA Lounge","address":"375 11th Street","city":"San Francisco","state":"CA","zip":"94103","lat":"37.7711031","lng":"-122.4126145"},{"name":"Dobbs Ferry Restaurant","address":"406 Hayes Street","city":"San Francisco","state":"CA","zip":"94102","lat":"37.7770072","lng":"-122.4232555"},{"name":"Doma Sushi Bar","address":"433 Precita Avenue","city":"San Francisco","state":"CA","zip":"94110","lat":"37.7474949","lng":"-122.4106402"},{"name":"Double Play Bar &amp; Grill","address":"2401 16th Street","city":"San Francisco","state":"CA","zip":"94103","lat":"37.7654995","lng":"-122.4106267"},{"name":"Double Play Restaurant","address":"2401 16th Street","city":"San Francisco","state":"CA","zip":"94103","lat":"37.7654995","lng":"-122.4106267"},{"name":"Dovre Club","address":"1498 Valencia Street","city":"San Francisco","state":"CA","zip":"94110","lat":"37.7490222","lng":"-122.4205845"},{"name":"Dr&#x27;s","address":"4826 Mission Street","city":"San Francisco","state":"CA","zip":"94112","lat":"37.7209469","lng":"-122.4378547"},{"name":"Dragon Lounge","address":"1355 Taraval Street","city":"San Francisco","state":"CA","zip":"94116","lat":"37.7427307","lng":"-122.480962"},{"name":"Duffy&#x27;s Irish Pub","address":"1451 Larkin Street","city":"San Francisco","state":"CA","zip":"94109","lat":"37.7914518","lng":"-122.4194842"},{"name":"Durty Nelly&#x27;s","address":"2328 Irving Street","city":"San Francisco","state":"CA","zip":"94122","lat":"37.7634711","lng":"-122.4830551"},{"name":"Dwellaware","address":"379 Clementina Street","city":"San Francisco","state":"CA","zip":"94103","lat":"37.780974","lng":"-122.403282"},{"name":"E &amp; O Kitchen and Bar","address":"314 Sutter Street","city":"San Francisco","state":"CA","zip":"94108","lat":"37.789717","lng":"-122.405846"},{"name":"E Z 5 Inc","address":"684 Commercial Street","city":"San Francisco","state":"CA","zip":"94111","lat":"37.7941822","lng":"-122.4044033"},{"name":"Eastside West Restaurant &amp; Bar","address":"3154 Fillmore Street","city":"San Francisco","state":"CA","zip":"94123","lat":"37.7988819","lng":"-122.4357517"},{"name":"Eddie Rickenbacker&#x27;s","address":"133 2nd Street","city":"San Francisco","state":"CA","zip":"94105","lat":"37.7876628","lng":"-122.3990075"},{"name":"Edible Excursions","address":"71 Cuvier Street","city":"San Francisco","state":"CA","zip":"94112","lat":"37.7339755","lng":"-122.4284318"},{"name":"Edinburgh Castle","address":"950 Geary Street","city":"San Francisco","state":"CA","zip":"94109","lat":"37.7861924","lng":"-122.4189859"},{"name":"El Amigo","address":"3355 Mission Street","city":"San Francisco","state":"CA","zip":"94110","lat":"37.7429721","lng":"-122.4213948"},{"name":"El Farolito Soccer Club","address":"2779 Mission Street","city":"San Francisco","state":"CA","zip":"94110","lat":"37.7526525","lng":"-122.4182227"},{"name":"El Toro Night Club","address":"2470 San Bruno Avenue","city":"San Francisco","state":"CA","zip":"94134","lat":"37.7306713","lng":"-122.4052746"},{"name":"El Trebol Bar","address":"3149 22nd Street","city":"San Francisco","state":"CA","zip":"94110","lat":"37.7553763","lng":"-122.4173949"},{"name":"Elbo Room","address":"647 Valencia Street","city":"San Francisco","state":"CA","zip":"94110","lat":"37.7625064","lng":"-122.4214116"},{"name":"Elixir","address":"3200 16th Street","city":"San Francisco","state":"CA","zip":"94103","lat":"37.7649919","lng":"-122.4243173"},{"name":"Encore Karaoke Lounge","address":"1550 California Street","city":"San Francisco","state":"CA","zip":"94109","lat":"37.7909005","lng":"-122.4200354"},{"name":"Eno","address":"320 Geary Street","city":"San Francisco","state":"CA","zip":"94102","lat":"37.78742099999999","lng":"-122.4086958"},{"name":"Etall","address":"2255 Polk Street","city":"San Francisco","state":"CA","zip":"94109","lat":"37.7976843","lng":"-122.4224591"},{"name":"Etcetera Wine Bar","address":"795 Valencia Street","city":"San Francisco","state":"CA","zip":"94110","lat":"37.7602981","lng":"-122.4212092"},{"name":"F8 Nightclub &amp; Bar","address":"1192 Folsom Street","city":"San Francisco","state":"CA","zip":"94103","lat":"37.77528969999999","lng":"-122.4101366"},{"name":"Family Billiards","address":"2807 Geary Boulevard","city":"San Francisco","state":"CA","zip":"94118","lat":"37.781996","lng":"-122.4493941"},{"name":"Fang","address":"660 Howard Street","city":"San Francisco","state":"CA","zip":"94105","lat":"37.785795","lng":"-122.399874"},{"name":"Ferry Plaza Wine Merchant","address":"1 Ferry Building , #23","city":"San Francisco","state":"CA","zip":"94111","lat":"37.7958338","lng":"-122.393782"},{"name":"Festa Wine &amp; Cocktail Lounge","address":"1825 Post Street","city":"San Francisco","state":"CA","zip":"94115","lat":"37.78517739999999","lng":"-122.4317809"},{"name":"Fiddler&#x27;s Green","address":"1333 Columbus Avenue","city":"San Francisco","state":"CA","zip":"94133","lat":"37.8065454","lng":"-122.419539"},{"name":"Fig &amp; Thistle","address":"313 Ivy Street","city":"San Francisco","state":"CA","zip":"94102","lat":"37.77722929999999","lng":"-122.4233794"},{"name":"Final Final","address":"2990 Baker Street","city":"San Francisco","state":"CA","zip":"94123","lat":"37.7985361","lng":"-122.4457305"},{"name":"Finnegans Wake","address":"937 Cole Street","city":"San Francisco","state":"CA","zip":"94117","lat":"37.7652969","lng":"-122.4500634"},{"name":"Fire Fly Sports Bar","address":"2457 Noriega Street","city":"San Francisco","state":"CA","zip":"94122","lat":"37.7534097","lng":"-122.4902513"},{"name":"Fireside","address":"603 Irving Street","city":"San Francisco","state":"CA","zip":"94122","lat":"37.7639345","lng":"-122.4644598"},{"name":"First Crush Restaurant &amp; Wine Bar","address":"101 Cyril Magnin Street","city":"San Francisco","state":"CA","zip":"94102","lat":"37.7855776","lng":"-122.4088901"},{"name":"Fish &amp; Farm","address":"424 Clay Street","city":"San Francisco","state":"CA","zip":"94111","lat":"37.7951044","lng":"-122.4007895"},{"name":"Five Hundred Club","address":"500 Guerrero Street","city":"San Francisco","state":"CA","zip":"94110","lat":"37.7630249","lng":"-122.4241968"},{"name":"Fly Trap","address":"606 Folsom Street","city":"San Francisco","state":"CA","zip":"94107","lat":"37.785485","lng":"-122.397216"},{"name":"Foreign Cinema","address":"2534 Mission Street","city":"San Francisco","state":"CA","zip":"94110","lat":"37.7564149","lng":"-122.4191801"},{"name":"Forgery","address":"1525 Mission Street","city":"San Francisco","state":"CA","zip":"94103","lat":"37.7737843","lng":"-122.4175169"},{"name":"Four Deuces","address":"2319 Taraval Street","city":"San Francisco","state":"CA","zip":"94116","lat":"37.7421689","lng":"-122.4911714"},{"name":"Friends Bar","address":"558 Monterey Boulevard","city":"San Francisco","state":"CA","zip":"94127","lat":"37.7318103","lng":"-122.4479402"},{"name":"Gallery Lounge On Brannan","address":"510 Brannan Street","city":"San Francisco","state":"CA","zip":"94107","lat":"37.778271","lng":"-122.3971046"},{"name":"Garaje Sf","address":"475 3rd Street","city":"San Francisco","state":"CA","zip":"94107","lat":"37.7817989","lng":"-122.3960425"},{"name":"Gingers","address":"246 Kearny Street","city":"San Francisco","state":"CA","zip":"94108","lat":"37.79049930000001","lng":"-122.4038395"},{"name":"Gino &amp; Carlo","address":"548 Green Street","city":"San Francisco","state":"CA","zip":"94133","lat":"37.7998704","lng":"-122.4081829"},{"name":"Giordanos Bros.","address":"3108 16th Street","city":"San Francisco","state":"CA","zip":"94103","lat":"37.765083","lng":"-122.4223264"},{"name":"Gold Mirror","address":"800 Taraval Street","city":"San Francisco","state":"CA","zip":"94116","lat":"37.7433015","lng":"-122.4748302"},{"name":"Golden Gate Club","address":"135 Fisher Loop","city":"San Francisco","state":"CA","zip":"94129","lat":"37.8004043","lng":"-122.461499"},{"name":"Golden Gate Grill","address":"449 Powell Street","city":"San Francisco","state":"CA","zip":"94102","lat":"37.7890061","lng":"-122.4089132"},{"name":"Golden Gate Tap Room","address":"525 Sutter Street","city":"San Francisco","state":"CA","zip":"94102","lat":"37.788933","lng":"-122.4089565"},{"name":"Good Care Inc","address":"34 Mason Street","city":"San Francisco","state":"CA","zip":"94102","lat":"37.7839519","lng":"-122.4090592"},{"name":"Gotham Club","address":"24 Willie Mays Plaza","city":"San Francisco","state":"CA","zip":"94107","lat":"37.7784199","lng":"-122.3906212"},{"name":"Grant &amp; Green Saloon","address":"1371 Grant Avenue","city":"San Francisco","state":"CA","zip":"94133","lat":"37.7995667","lng":"-122.4075038"},{"name":"Grasslands","address":"905 Kearny Street","city":"San Francisco","state":"CA","zip":"94133","lat":"37.7963385","lng":"-122.4053377"},{"name":"Gravity","address":"3251 Scott Street","city":"San Francisco","state":"CA","zip":"94123","lat":"37.799838","lng":"-122.4413992"},{"name":"Great American Music Hall","address":"859 O&#x27;Farrell Street","city":"San Francisco","state":"CA","zip":"94109","lat":"37.7848325","lng":"-122.418809"},{"name":"Green Bar","address":"3 Embarcadero Center","city":"San Francisco","state":"CA","zip":"94111","lat":"37.7948167","lng":"-122.397348"},{"name":"Greenhound","address":"298 Divisadero Street","city":"San Francisco","state":"CA","zip":"94117","lat":"37.7721319","lng":"-122.4369257"},{"name":"Halberstadt Fencers&#x27; Club","address":"220 16th Avenue","city":"San Francisco","state":"CA","zip":"94118","lat":"37.7839336","lng":"-122.4750956"},{"name":"Halcyon","address":"314 11th Street","city":"San Francisco","state":"CA","zip":"94103","lat":"37.771465","lng":"-122.4139198"},{"name":"Halu","address":"312 8th Avenue","city":"San Francisco","state":"CA","zip":"94118","lat":"37.7825683","lng":"-122.4664565"},{"name":"Hamburger Mary&#x27;s","address":"541 Castro Street","city":"San Francisco","state":"CA","zip":"94114","lat":"37.7601922","lng":"-122.4348075"},{"name":"Hanaro","address":"939 Geary Street","city":"San Francisco","state":"CA","zip":"94109","lat":"37.7859167","lng":"-122.4188645"},{"name":"Handbags-Info Club","address":"1 Market Street","city":"San Francisco","state":"CA","zip":"94105","lat":"37.7941843","lng":"-122.3948638"},{"name":"Happy Lounge","address":"3745 Geary Boulevard","city":"San Francisco","state":"CA","zip":"94118","lat":"37.7809359","lng":"-122.4597055"},{"name":"Hard Water","address":"Pier 3","city":"San Francisco","state":"CA","zip":"94105","lat":"37.7980305","lng":"-122.394973"},{"name":"Hardwood Bar &amp; Smokery","address":"680 8th Street","city":"San Francisco","state":"CA","zip":"94103","lat":"37.7703495","lng":"-122.4046496"},{"name":"Harper &amp; Rye","address":"1695 Polk Street","city":"San Francisco","state":"CA","zip":"94109","lat":"37.7922328","lng":"-122.4213088"},{"name":"Harrington&#x27;s Bar &amp; Grill","address":"245 Front Street","city":"San Francisco","state":"CA","zip":"94111","lat":"37.794057","lng":"-122.3991919"},{"name":"Harrington&#x27;s Harry Pub","address":"460 Larkin Street","city":"San Francisco","state":"CA","zip":"94102","lat":"37.78226859999999","lng":"-122.4171251"},{"name":"Harry&#x27;s Bar","address":"2020 Fillmore Street","city":"San Francisco","state":"CA","zip":"94115","lat":"37.7883469","lng":"-122.4335256"},{"name":"Harvey&#x27;s","address":"500 Castro Street","city":"San Francisco","state":"CA","zip":"94114","lat":"37.7607515","lng":"-122.435205"},{"name":"Hawaii West","address":"729 Vallejo Street","city":"San Francisco","state":"CA","zip":"94133","lat":"37.798365","lng":"-122.4093434"},{"name":"Hawthorn","address":"46 Geary Street","city":"San Francisco","state":"CA","zip":"94108","lat":"37.7879924","lng":"-122.4042943"},{"name":"Hearth Bar","address":"4701 Geary Boulevard","city":"San Francisco","state":"CA","zip":"94118","lat":"37.7805187","lng":"-122.4697837"},{"name":"Hemlock Tavern","address":"1131 Polk Street","city":"San Francisco","state":"CA","zip":"94109","lat":"37.7873893","lng":"-122.4202587"},{"name":"Hi Dive","address":"28 Pier","city":"San Francisco","state":"CA","zip":"94105","lat":"37.7880738","lng":"-122.3868101"},{"name":"Hi-Fi Lounge","address":"2125 Lombard Street","city":"San Francisco","state":"CA","zip":"94123","lat":"37.79959590000001","lng":"-122.4364723"},{"name":"Hideout","address":"3121 16th Street","city":"San Francisco","state":"CA","zip":"94103","lat":"37.7646713","lng":"-122.4224603"},{"name":"Hillstone","address":"1800 Montgomery Street","city":"San Francisco","state":"CA","zip":"94111","lat":"37.80599309999999","lng":"-122.4051806"},{"name":"Hobson&#x27;s Choice Bar","address":"1601 Haight Street","city":"San Francisco","state":"CA","zip":"94117","lat":"37.7696557","lng":"-122.4486723"},{"name":"Hockey Haven","address":"3625 Balboa Street","city":"San Francisco","state":"CA","zip":"94121","lat":"37.7754892","lng":"-122.4977786"},{"name":"Hog and Rocks","address":"3431 19th Street","city":"San Francisco","state":"CA","zip":"94110","lat":"37.7600837","lng":"-122.4198861"},{"name":"Hong Kong Lounge","address":"1508 Taraval Street","city":"San Francisco","state":"CA","zip":"94116","lat":"37.7429869","lng":"-122.4824415"},{"name":"Hong Kong Lounge II","address":"3300 Geary Boulevard","city":"San Francisco","state":"CA","zip":"94118","lat":"37.781865","lng":"-122.4544116"},{"name":"Hookah SF","address":"419 O&#x27;Farrell Street","city":"San Francisco","state":"CA","zip":"94102","lat":"37.7858546","lng":"-122.4117609"},{"name":"Horizon","address":"498 Broadway","city":"San Francisco","state":"CA","zip":"94133","lat":"37.7982351","lng":"-122.4054098"},{"name":"Horseshoe Tavern","address":"2024 Chestnut Street","city":"San Francisco","state":"CA","zip":"94123","lat":"37.8009054","lng":"-122.4369381"},{"name":"Hotel Biron","address":"45 Rose Street","city":"San Francisco","state":"CA","zip":"94102","lat":"37.7735606","lng":"-122.422052"},{"name":"House Of Shields","address":"39 New Montgomery Street","city":"San Francisco","state":"CA","zip":"94105","lat":"37.7882737","lng":"-122.4013083"},{"name":"Hyde-Out","address":"1068 Hyde Street","city":"San Francisco","state":"CA","zip":"94109","lat":"37.7908962","lng":"-122.4172395"},{"name":"India Curry House","address":"1040 Columbus Avenue","city":"San Francisco","state":"CA","zip":"94133","lat":"37.8041563","lng":"-122.4152693"},{"name":"Inovino","address":"108-B Carl Street","city":"San Francisco","state":"CA","zip":"94117","lat":"37.76591","lng":"-122.4503393"},{"name":"International Sports Club","address":"1000 Columbus Avenue","city":"San Francisco","state":"CA","zip":"94133","lat":"37.8039248","lng":"-122.4151144"},{"name":"Internos Wine Cafe","address":"3240 Geary Boulevard","city":"San Francisco","state":"CA","zip":"94118","lat":"37.7818633","lng":"-122.4539139"},{"name":"Irving Pizza","address":"928 Geary Street","city":"San Francisco","state":"CA","zip":"94109","lat":"37.7862531","lng":"-122.4185767"},{"name":"Izakaya Kou","address":"1560 Fillmore Street","city":"San Francisco","state":"CA","zip":"94115","lat":"37.7841444","lng":"-122.4325818"},{"name":"Jackalope","address":"1092 Post Street","city":"San Francisco","state":"CA","zip":"94109","lat":"37.7870162","lng":"-122.4197441"},{"name":"Jasper&#x27;s Corner Tap and Kitchen","address":"401 Taylor Street","city":"San Francisco","state":"CA","zip":"94102","lat":"37.7861517","lng":"-122.4116792"},{"name":"Jaxson","address":"3231 Fillmore Street","city":"San Francisco","state":"CA","zip":"94123","lat":"37.7994788","lng":"-122.4362179"},{"name":"Jester&#x27;s Restaurant &amp; Lounge","address":"50 3rd Street","city":"San Francisco","state":"CA","zip":"94103","lat":"37.7865913","lng":"-122.4028371"},{"name":"Jillian&#x27;s","address":"101 4th Street","city":"San Francisco","state":"CA","zip":"94103","lat":"37.7842491","lng":"-122.4032115"},{"name":"Johnny Foley&#x27;s Irish House","address":"243 O&#x27;Farrell Street","city":"San Francisco","state":"CA","zip":"94102","lat":"37.78599310000001","lng":"-122.4086873"},{"name":"Jones","address":"620 Jones Street","city":"San Francisco","state":"CA","zip":"94102","lat":"37.7871219","lng":"-122.4131318"},{"name":"Kama Lounge Inc","address":"2555 Judah Street","city":"San Francisco","state":"CA","zip":"94122","lat":"37.7609486","lng":"-122.4895545"},{"name":"Kate O&#x27;Brien&#x27;s Irish Bar &amp; Grill","address":"579 Howard Street","city":"San Francisco","state":"CA","zip":"94105","lat":"37.7870655","lng":"-122.3974916"},{"name":"Kava Lounge Sf","address":"901 Divisadero Street","city":"San Francisco","state":"CA","zip":"94115","lat":"37.7779453","lng":"-122.4387456"},{"name":"Kells Irish Restaurant &amp; Bar","address":"530 Jackson Street","city":"San Francisco","state":"CA","zip":"94133","lat":"37.7965965","lng":"-122.4040771"},{"name":"Ken Ken Ramen","address":"3378 18th Street","city":"San Francisco","state":"CA","zip":"94110","lat":"37.7620489","lng":"-122.4188753"},{"name":"Kezar Bar &amp; Restaurant","address":"900 Cole Street","city":"San Francisco","state":"CA","zip":"94117","lat":"37.7656962","lng":"-122.449768"},{"name":"Kezar Pub","address":"770 Stanyan Street","city":"San Francisco","state":"CA","zip":"94117","lat":"37.7678896","lng":"-122.4529242"},{"name":"Kilowatt","address":"3160 16th Street","city":"San Francisco","state":"CA","zip":"94103","lat":"37.7650579","lng":"-122.4232555"},{"name":"Kimocki Inc","address":"1715 Buchanan Street","city":"San Francisco","state":"CA","zip":"94115","lat":"37.785917","lng":"-122.430117"},{"name":"Knockout","address":"3223 Mission Street","city":"San Francisco","state":"CA","zip":"94110","lat":"37.7451489","lng":"-122.4199626"},{"name":"L&#x27;Olivier","address":"465 Davis Court","city":"San Francisco","state":"CA","zip":"94111","lat":"37.7966633","lng":"-122.3984686"},{"name":"La Folie","address":"2316 Polk Street","city":"San Francisco","state":"CA","zip":"94109","lat":"37.7981417","lng":"-122.4220609"},{"name":"La Movida","address":"3066 24th Street","city":"San Francisco","state":"CA","zip":"94110","lat":"37.752677","lng":"-122.4134372"},{"name":"La Rocca&#x27;s Corner","address":"957 Columbus Avenue","city":"San Francisco","state":"CA","zip":"94133","lat":"37.8031815","lng":"-122.4146277"},{"name":"La Stazione Coffee &amp; Wine Bar","address":"701 Pennsylvania Avenue","city":"San Francisco","state":"CA","zip":"94107","lat":"37.757359","lng":"-122.3928782"},{"name":"La Trappe","address":"800 Greenwich Street","city":"San Francisco","state":"CA","zip":"94133","lat":"37.8019982","lng":"-122.4131132"},{"name":"Laslzo","address":"2534 Mission Street","city":"San Francisco","state":"CA","zip":"94110","lat":"37.7564149","lng":"-122.4191801"},{"name":"Last Call","address":"3988 18th Street","city":"San Francisco","state":"CA","zip":"94114","lat":"37.7612167","lng":"-122.4324826"},{"name":"Last Drop Tavern","address":"550 Powell Street","city":"San Francisco","state":"CA","zip":"94108","lat":"37.7900104","lng":"-122.4085658"},{"name":"Latin American Club","address":"3286 22nd Street","city":"San Francisco","state":"CA","zip":"94110","lat":"37.7554167","lng":"-122.4206674"},{"name":"Laurel Court Restaurant &amp; Bar","address":"950 Mason Street","city":"San Francisco","state":"CA","zip":"94108","lat":"37.7923883","lng":"-122.4100923"},{"name":"Lava Lounge","address":"527 Bryant Street","city":"San Francisco","state":"CA","zip":"94107","lat":"37.7805795","lng":"-122.3964121"},{"name":"Lawton Tap Room","address":"3645 Lawton Street","city":"San Francisco","state":"CA","zip":"94122","lat":"37.7566693","lng":"-122.5021886"},{"name":"Le Club Epicurian","address":"55 Cyril Magnin Street","city":"San Francisco","state":"CA","zip":"94102","lat":"37.7849258","lng":"-122.4089419"},{"name":"Lefty O&#x27;Doul&#x27;s Restaurant &amp; Cocktail Lounge","address":"333 Geary Street","city":"San Francisco","state":"CA","zip":"94102","lat":"37.7871974","lng":"-122.4087708"},{"name":"Leung, Will","address":"905 Kearny Street","city":"San Francisco","state":"CA","zip":"94133","lat":"37.7963385","lng":"-122.4053377"},{"name":"Level 2 Karaoke","address":"1504 Fillmore Street","city":"San Francisco","state":"CA","zip":"94115","lat":"37.7835577","lng":"-122.4323691"},{"name":"Li Po Cocktail Lounge","address":"916 Grant Avenue","city":"San Francisco","state":"CA","zip":"94108","lat":"37.7954238","lng":"-122.4064344"},{"name":"Lichee Garden Restaurant","address":"1416 Powell Street","city":"San Francisco","state":"CA","zip":"94133","lat":"37.7978495","lng":"-122.410183"},{"name":"Liquid Gold","address":"1040 Hyde Street","city":"San Francisco","state":"CA","zip":"94109","lat":"37.7906032","lng":"-122.4171121"},{"name":"Little Minsky&#x27;s Burlesque","address":"1511 Haight Street","city":"San Francisco","state":"CA","zip":"94117","lat":"37.76976860000001","lng":"-122.4471395"},{"name":"Little Shamrock","address":"807 Lincoln Way","city":"San Francisco","state":"CA","zip":"94122","lat":"37.7656707","lng":"-122.4667374"},{"name":"Little Sushi Bar","address":"200 23rd Avenue","city":"San Francisco","state":"CA","zip":"94121","lat":"37.7838693","lng":"-122.4826197"},{"name":"Lizzie&#x27;s Starlight","address":"450 Powell Street","city":"San Francisco","state":"CA","zip":"94102","lat":"37.7890363","lng":"-122.4083445"},{"name":"Local Edition","address":"691 Market Street","city":"San Francisco","state":"CA","zip":"94105","lat":"37.787588","lng":"-122.4031888"},{"name":"Lone Star Saloon","address":"1354 Harrison Street","city":"San Francisco","state":"CA","zip":"94103","lat":"37.77217170000001","lng":"-122.410901"},{"name":"Lookout","address":"3600 16th Street","city":"San Francisco","state":"CA","zip":"94114","lat":"37.7643342","lng":"-122.433563"},{"name":"Lou&#x27;s Fish Shack","address":"300 Jefferson Street","city":"San Francisco","state":"CA","zip":"94133","lat":"37.8081056","lng":"-122.4179158"},{"name":"Lucita&#x27;s Niteclub","address":"3247 Mission Street","city":"San Francisco","state":"CA","zip":"94110","lat":"37.7447868","lng":"-122.4201584"},{"name":"Lucky 13","address":"2140 Market Street","city":"San Francisco","state":"CA","zip":"94114","lat":"37.7671503","lng":"-122.4299645"},{"name":"Lucky Strike Entertainment","address":"200 King Street","city":"San Francisco","state":"CA","zip":"94107","lat":"37.7781718","lng":"-122.3922674"},{"name":"Lush Lounge","address":"1221 Polk Street","city":"San Francisco","state":"CA","zip":"94109","lat":"37.7881417","lng":"-122.4203423"},{"name":"Madrone Art Bar","address":"500 Divisadero Street","city":"San Francisco","state":"CA","zip":"94117","lat":"37.7742261","lng":"-122.4373914"},{"name":"Magnolia Brewing - Haight","address":"1398 Haight Street","city":"San Francisco","state":"CA","zip":"94117","lat":"37.7703879","lng":"-122.4451741"},{"name":"Make-Out Room","address":"3225 22nd Street","city":"San Francisco","state":"CA","zip":"94110","lat":"37.7552346","lng":"-122.419362"},{"name":"Mariannes","address":"360 Jessie","city":"San Francisco","state":"CA","zip":"94103","lat":"37.7833359","lng":"-122.4069933"},{"name":"Mars Bar &amp; Restaurant","address":"798 Brannan Street","city":"San Francisco","state":"CA","zip":"94103","lat":"37.7732647","lng":"-122.4031788"},{"name":"Martin Macks","address":"1568 Haight Street","city":"San Francisco","state":"CA","zip":"94117","lat":"37.7701408","lng":"-122.448136"},{"name":"Mauna Loa","address":"3009 Fillmore Street","city":"San Francisco","state":"CA","zip":"94123","lat":"37.7973143","lng":"-122.4357177"},{"name":"Mazcalito Bar &amp; Restaurant","address":"2323 Polk Street","city":"San Francisco","state":"CA","zip":"94109","lat":"37.7981647","lng":"-122.4224969"},{"name":"Mc Teague&#x27;s Saloon","address":"1237 Polk Street","city":"San Francisco","state":"CA","zip":"94109","lat":"37.7883704","lng":"-122.4205566"},{"name":"Mecca","address":"2029 Market Street","city":"San Francisco","state":"CA","zip":"94114","lat":"37.7683932","lng":"-122.4274806"},{"name":"Mercer Restaurant Group","address":"1085 Mission Street","city":"San Francisco","state":"CA","zip":"94103","lat":"37.7794022","lng":"-122.4103967"},{"name":"Mezzanine","address":"444 Jessie","city":"San Francisco","state":"CA","zip":"94103","lat":"37.78248430000001","lng":"-122.4080736"},{"name":"Midnight Sun","address":"4067 18th Street","city":"San Francisco","state":"CA","zip":"94114","lat":"37.76073","lng":"-122.43432"},{"name":"Milk Bar","address":"1840 Haight Street","city":"San Francisco","state":"CA","zip":"94117","lat":"37.7695149","lng":"-122.4526147"},{"name":"Miller&#x27;s Rest","address":"1085 Sutter Street","city":"San Francisco","state":"CA","zip":"94109","lat":"37.7879123","lng":"-122.418269"},{"name":"Mini Bar Sf","address":"837 Divisadero Street","city":"San Francisco","state":"CA","zip":"94117","lat":"37.7774002","lng":"-122.4384474"},{"name":"Mission Bar","address":"2695 Mission Street","city":"San Francisco","state":"CA","zip":"94110","lat":"37.7540046","lng":"-122.4183895"},{"name":"Mission Bay Wine &amp; Cheese","address":"114 Channel Street","city":"San Francisco","state":"CA","zip":"94158","lat":"37.7746773","lng":"-122.391388"},{"name":"Mission Bowling Club","address":"3176 17th Street","city":"San Francisco","state":"CA","zip":"94110","lat":"37.763895","lng":"-122.4166852"},{"name":"Mission Covo","address":"981 Mission Street","city":"San Francisco","state":"CA","zip":"94103","lat":"37.7812014","lng":"-122.4081011"},{"name":"Mission Hills Saloon","address":"491 Potrero Avenue","city":"San Francisco","state":"CA","zip":"94110","lat":"37.7633503","lng":"-122.4071423"},{"name":"Mister Bing&#x27;s","address":"201 Columbus Avenue","city":"San Francisco","state":"CA","zip":"94133","lat":"37.7971443","lng":"-122.4059188"},{"name":"Mo&#x27;z Cafe","address":"36 5th Street","city":"San Francisco","state":"CA","zip":"94103","lat":"37.7833874","lng":"-122.4075568"},{"name":"Moby Dick","address":"4049 18th Street","city":"San Francisco","state":"CA","zip":"94114","lat":"37.7608266","lng":"-122.4336948"},{"name":"Molloy&#x27;s Tavern","address":"1655 Mission Street","city":"San Francisco","state":"CA","zip":"94103","lat":"37.7715909","lng":"-122.4191887"},{"name":"Momo Ca","address":"18 Lansing Street","city":"San Francisco","state":"CA","zip":"94105","lat":"37.7863632","lng":"-122.3938675"},{"name":"Momo&#x27;s","address":"760 2nd Street","city":"San Francisco","state":"CA","zip":"94107","lat":"37.7798453","lng":"-122.3902228"},{"name":"Monaghans","address":"3243 Pierce Street","city":"San Francisco","state":"CA","zip":"94123","lat":"37.8000517","lng":"-122.4397294"},{"name":"Monarch","address":"101 6th Street","city":"San Francisco","state":"CA","zip":"94103","lat":"37.7809743","lng":"-122.4084128"},{"name":"Montesacro Pinseria","address":"510 Stevenson Street","city":"San Francisco","state":"CA","zip":"94103","lat":"37.7818596","lng":"-122.4101827"},{"name":"Morak Lounge","address":"3126 16th Street","city":"San Francisco","state":"CA","zip":"94103","lat":"37.7650239","lng":"-122.4226294"},{"name":"Mr. Smith&#x27;s","address":"34 7th Street","city":"San Francisco","state":"CA","zip":"94103","lat":"37.7799809","lng":"-122.4122182"},{"name":"Mucky Duck","address":"1315 9th Avenue","city":"San Francisco","state":"CA","zip":"94122","lat":"37.7637282","lng":"-122.4665495"},{"name":"Murio&#x27;s Trophy Room","address":"1811 Haight Street","city":"San Francisco","state":"CA","zip":"94117","lat":"37.7691469","lng":"-122.4521865"},{"name":"Murphy&#x27;s Pub","address":"217 Kearny Street","city":"San Francisco","state":"CA","zip":"94108","lat":"37.7901889","lng":"-122.4041106"},{"name":"Myriad Gastropub","address":"2491 Mission Street","city":"San Francisco","state":"CA","zip":"94110","lat":"37.7572679","lng":"-122.418732"},{"name":"Mystic Hotel by Charlie Palmer","address":"417 Stockton Street","city":"San Francisco","state":"CA","zip":"94108","lat":"37.7897895","lng":"-122.4074167"},{"name":"Naked Fish","address":"2084 Chestnut Street","city":"San Francisco","state":"CA","zip":"94123","lat":"37.8007934","lng":"-122.4379795"},{"name":"Naked Lunch","address":"504 Broadway","city":"San Francisco","state":"CA","zip":"94133","lat":"37.798165","lng":"-122.4056481"},{"name":"Nara Sushi","address":"1515 Polk Street","city":"San Francisco","state":"CA","zip":"94109","lat":"37.7908041","lng":"-122.4209327"},{"name":"Natives Bar","address":"5320 Geary Boulevard","city":"San Francisco","state":"CA","zip":"94121","lat":"37.7806431","lng":"-122.4765192"},{"name":"New Judnich&#x27;s","address":"2888 San Bruno Avenue","city":"San Francisco","state":"CA","zip":"94134","lat":"37.72536220000001","lng":"-122.4029661"},{"name":"New OSHA Thai Inc","address":"311 3rd Street","city":"San Francisco","state":"CA","zip":"94107","lat":"37.7836468","lng":"-122.3983879"},{"name":"Nick&#x27;s Crispy Taco&#x27;s","address":"1500 Broadway","city":"San Francisco","state":"CA","zip":"94109","lat":"37.7961366","lng":"-122.4221398"},{"name":"Nihon","address":"1779 Folsom Street","city":"San Francisco","state":"CA","zip":"94103","lat":"37.7686788","lng":"-122.4153201"},{"name":"Ninki Sushi Bar &amp; Restaurant","address":"1439 Taraval Street","city":"San Francisco","state":"CA","zip":"94116","lat":"37.7425926","lng":"-122.4817594"},{"name":"Nob Hill Club at the Mark Hopkins","address":"1 Nob Hill Place","city":"San Francisco","state":"CA","zip":"94108","lat":"37.7911465","lng":"-122.4101366"},{"name":"Noc Noc","address":"557 Haight Street","city":"San Francisco","state":"CA","zip":"94117","lat":"37.7718173","lng":"-122.4313848"},{"name":"Noc Noc On Broadway","address":"515 Broadway","city":"San Francisco","state":"CA","zip":"94109","lat":"37.7978398","lng":"-122.405852"},{"name":"Noe&#x27;s Bar","address":"1199 Church Street","city":"San Francisco","state":"CA","zip":"94114","lat":"37.7518453","lng":"-122.4272875"},{"name":"Noeteca Wine Bar","address":"1551 Dolores Street","city":"San Francisco","state":"CA","zip":"94110","lat":"37.744568","lng":"-122.4241403"},{"name":"Noir Lounge","address":"581 Hayes St","city":"San Francisco","state":"CA","zip":"94102","lat":"37.7773172","lng":"-122.419609"},{"name":"Nopa","address":"560 Divisadero Street","city":"San Francisco","state":"CA","zip":"94117","lat":"37.7748935","lng":"-122.4375671"},{"name":"Notte","address":"1851 Union Street","city":"San Francisco","state":"CA","zip":"94123","lat":"37.7977031","lng":"-122.4298005"},{"name":"Novela","address":"662 Mission Street","city":"San Francisco","state":"CA","zip":"94105","lat":"37.7870852","lng":"-122.4013897"},{"name":"Nutrex Club","address":"889 Sutter Street","city":"San Francisco","state":"CA","zip":"94109","lat":"37.7882536","lng":"-122.4148612"},{"name":"O Izakaya Lounge","address":"1625 Post Street","city":"San Francisco","state":"CA","zip":"94115","lat":"37.7854588","lng":"-122.4286309"},{"name":"O&#x27;Farrell Theatre","address":"895 O&#x27;Farrell Street","city":"San Francisco","state":"CA","zip":"94109","lat":"37.7847458","lng":"-122.4192392"},{"name":"O&#x27;Keeffe&#x27;s Bar","address":"598 5th Avenue","city":"San Francisco","state":"CA","zip":"94118","lat":"37.7774224","lng":"-122.4628314"},{"name":"O3 Bistro &amp; Lounge","address":"524 Van Ness Avenue","city":"San Francisco","state":"CA","zip":"94102","lat":"37.7805414","lng":"-122.4201278"},{"name":"Obispo","address":"3266 24th Street","city":"San Francisco","state":"CA","zip":"94110","lat":"37.7524495","lng":"-122.417833"},{"name":"Occidental cigar club","address":"471 Pine Street","city":"San Francisco","state":"CA","zip":"94104","lat":"37.7916707","lng":"-122.4036575"},{"name":"Ocean Club","address":"450 Post Street","city":"San Francisco","state":"CA","zip":"94102","lat":"37.7882994","lng":"-122.4093357"},{"name":"Octavia Lounge","address":"1772 Market Street","city":"San Francisco","state":"CA","zip":"94102","lat":"37.7724004","lng":"-122.4230747"},{"name":"Oddjob","address":"1337 Mission Street","city":"San Francisco","state":"CA","zip":"94103","lat":"37.7757038","lng":"-122.415026"},{"name":"Olympic Club","address":"2966 Diamond Street","city":"San Francisco","state":"CA","zip":"94131","lat":"37.7326539","lng":"-122.4346364"},{"name":"Olympic Club Rugby","address":"1230 Washington Street","city":"San Francisco","state":"CA","zip":"94108","lat":"37.7945442","lng":"-122.4138534"},{"name":"One Project","address":"251 Rhode Island Street","city":"San Francisco","state":"CA","zip":"94103","lat":"37.766538","lng":"-122.4023928"},{"name":"Opaque - Dining In The Dark","address":"689 McAllister Street","city":"San Francisco","state":"CA","zip":"94102","lat":"37.7795803","lng":"-122.4233539"},{"name":"Origin","address":"1538 Fillmore Street","city":"San Francisco","state":"CA","zip":"94115","lat":"37.7838889","lng":"-122.432524"},{"name":"Orson&#x27;s Belly","address":"1737 Balboa Street","city":"San Francisco","state":"CA","zip":"94121","lat":"37.7764721","lng":"-122.4778225"},{"name":"Our Place Bar","address":"4461 Mission Street","city":"San Francisco","state":"CA","zip":"94112","lat":"37.7268335","lng":"-122.4330384"},{"name":"Pagan Idol","address":"375 Bush Street","city":"San Francisco","state":"CA","zip":"94104","lat":"37.79068669999999","lng":"-122.4036347"},{"name":"Pagoda","address":"1704 Post Street","city":"San Francisco","state":"CA","zip":"94115","lat":"37.7856202","lng":"-122.4302123"},{"name":"Palio D&#x27; Asti","address":"640 Sacramento Street","city":"San Francisco","state":"CA","zip":"94111","lat":"37.7938689","lng":"-122.4036744"},{"name":"Palmers Tavern","address":"2298 Fillmore Street","city":"San Francisco","state":"CA","zip":"94115","lat":"37.7906203","lng":"-122.4339111"},{"name":"Palomino","address":"345 Spear Street","city":"San Francisco","state":"CA","zip":"94105","lat":"37.7899545","lng":"-122.389913"},{"name":"Pancho&#x27;s Salsa Bar &amp; Grill","address":"1639 Polk Street","city":"San Francisco","state":"CA","zip":"94109","lat":"37.7919986","lng":"-122.4212535"},{"name":"Pandora Karaoke &amp; Bar","address":"177 Eddy Street","city":"San Francisco","state":"CA","zip":"94102","lat":"37.783993","lng":"-122.4104021"},{"name":"Panta Rei","address":"431 Columbus Avenue","city":"San Francisco","state":"CA","zip":"94133","lat":"37.7990472","lng":"-122.4086839"},{"name":"Paradise Lounge","address":"1501 Folsom Street","city":"San Francisco","state":"CA","zip":"94103","lat":"37.7715869","lng":"-122.414007"},{"name":"Paragon","address":"701 2nd Street","city":"San Francisco","state":"CA","zip":"94107","lat":"37.7806206","lng":"-122.3900016"},{"name":"Parigo","address":"3232 Scott Street","city":"San Francisco","state":"CA","zip":"94123","lat":"37.7997516","lng":"-122.4409183"},{"name":"Park Tavern","address":"1652 Stockton Street","city":"San Francisco","state":"CA","zip":"94133","lat":"37.8010729","lng":"-122.409141"},{"name":"Park Tavern","address":"188 South Park Street","city":"San Francisco","state":"CA","zip":"94107","lat":"37.780983","lng":"-122.3950025"},{"name":"Parlor","address":"2801 Leavenworth Street","city":"San Francisco","state":"CA","zip":"94133","lat":"37.8070209","lng":"-122.4193841"},{"name":"Patriot House","address":"2 The Embarcadero","city":"San Francisco","state":"CA","zip":"94133","lat":"37.8084064","lng":"-122.4117879"},{"name":"Pause Wine Bar","address":"1666 Market Street","city":"San Francisco","state":"CA","zip":"94102","lat":"37.7735006","lng":"-122.421737"},{"name":"Pe Yale","address":"3131 Fillmore Street","city":"San Francisco","state":"CA","zip":"94123","lat":"37.7984027","lng":"-122.435972"},{"name":"Peach Corvette","address":"2360 Van Ness Avenue","city":"San Francisco","state":"CA","zip":"94109","lat":"37.7975319","lng":"-122.4234988"},{"name":"Peacock Lounge","address":"552 Haight Street","city":"San Francisco","state":"CA","zip":"94117","lat":"37.772198","lng":"-122.4313969"},{"name":"Pedro&#x27;s Cantina","address":"128 King Street","city":"San Francisco","state":"CA","zip":"94107","lat":"37.7795096","lng":"-122.3907097"},{"name":"Perry&#x27;s","address":"155 Steuart Street","city":"San Francisco","state":"CA","zip":"94105","lat":"37.7928445","lng":"-122.3922586"},{"name":"Perry&#x27;s","address":"1944 Union Street","city":"San Francisco","state":"CA","zip":"94123","lat":"37.7978273","lng":"-122.4313074"},{"name":"Pescatore","address":"2455 Mason Street","city":"San Francisco","state":"CA","zip":"94133","lat":"37.8063326","lng":"-122.4139529"},{"name":"Pete&#x27;s Tavern","address":"128 King Street","city":"San Francisco","state":"CA","zip":"94107","lat":"37.7795096","lng":"-122.3907097"},{"name":"Philosopher&#x27;s Club","address":"824 Ulloa Street","city":"San Francisco","state":"CA","zip":"94127","lat":"37.74089290000001","lng":"-122.4653664"},{"name":"Phlox Commons","address":"1075 Sutter Street","city":"San Francisco","state":"CA","zip":"94109","lat":"37.7878316","lng":"-122.4180126"},{"name":"Phone Booth","address":"1398 Van Ness Avenue","city":"San Francisco","state":"CA","zip":"94109","lat":"37.7884986","lng":"-122.4218922"},{"name":"PianoFight","address":"144 Taylor Street","city":"San Francisco","state":"CA","zip":"94102","lat":"37.7839092","lng":"-122.4106652"},{"name":"Pied Piper Bar &amp; Grill","address":"2 New Montgomery Street","city":"San Francisco","state":"CA","zip":"94105","lat":"37.7884503","lng":"-122.4020449"},{"name":"Pier 23 Cafe","address":"Pier 23 The Embarcadero","city":"San Francisco","state":"CA","zip":"94111","lat":"37.8033934","lng":"-122.4008661"},{"name":"Pig and Whistle","address":"2801 Geary Boulevard","city":"San Francisco","state":"CA","zip":"94118","lat":"37.7819658","lng":"-122.4491606"},{"name":"Pineapple Bistro &amp; Bar","address":"580 Geary Street","city":"San Francisco","state":"CA","zip":"94102","lat":"37.7869422","lng":"-122.4129982"},{"name":"Pisco","address":"1817 Market Street","city":"San Francisco","state":"CA","zip":"94103","lat":"37.7712095","lng":"-122.4238306"},{"name":"Pissed Off Pete&#x27;s","address":"4528 Mission Street","city":"San Francisco","state":"CA","zip":"94112","lat":"37.7255834","lng":"-122.4345126"},{"name":"Pittsburgh&#x27;s Pub","address":"4207 Judah Street","city":"San Francisco","state":"CA","zip":"94122","lat":"37.760207","lng":"-122.5072831"},{"name":"Pizza Inferno Restaurant &amp; Bar","address":"1800 Fillmore Street","city":"San Francisco","state":"CA","zip":"94115","lat":"37.786249","lng":"-122.4331212"},{"name":"Pizzeria Delfina","address":"688 Mission Street","city":"San Francisco","state":"CA","zip":"94105","lat":"37.786685","lng":"-122.401928"},{"name":"Platinum Players Club","address":"340 Townsend Street","city":"San Francisco","state":"CA","zip":"94107","lat":"37.7764835","lng":"-122.3961974"},{"name":"Players Arcade &amp; Sports Grill","address":"The-Embarcadero , Pier 39","city":"San Francisco","state":"CA","zip":"94133","lat":"37.80867300000001","lng":"-122.409821"},{"name":"Playland Bar","address":"1351 Polk Street","city":"San Francisco","state":"CA","zip":"94109","lat":"37.7895017","lng":"-122.4206305"},{"name":"Plush Room Cabaret","address":"940 Sutter Street","city":"San Francisco","state":"CA","zip":"94109","lat":"37.7886297","lng":"-122.4159743"},{"name":"Polo Grounds Pub N Grill","address":"747 3rd Street","city":"San Francisco","state":"CA","zip":"94107","lat":"37.7784939","lng":"-122.3920186"},{"name":"Pompei&#x27;s Grotto","address":"340 Jefferson Street","city":"San Francisco","state":"CA","zip":"94133","lat":"37.8081492","lng":"-122.4181371"},{"name":"Pops","address":"2800 24th Street","city":"San Francisco","state":"CA","zip":"94110","lat":"37.7530749","lng":"-122.4083707"},{"name":"Postalserviceusa Club","address":"1790 Gough Street","city":"San Francisco","state":"CA","zip":"94109","lat":"37.7899335","lng":"-122.4253757"},{"name":"Powerhouse","address":"1347 Folsom Street","city":"San Francisco","state":"CA","zip":"94103","lat":"37.7730725","lng":"-122.4121271"},{"name":"Presidio Social Club","address":"563 Ruger Street","city":"San Francisco","state":"CA","zip":"94129","lat":"37.7973386","lng":"-122.4484327"},{"name":"Primetime Sportsbar &amp; Grill","address":"1810 Clement Street","city":"San Francisco","state":"CA","zip":"94121","lat":"37.7824201","lng":"-122.4787632"},{"name":"Pub Sutter","address":"700 Sutter Street","city":"San Francisco","state":"CA","zip":"94109","lat":"37.7889228","lng":"-122.4121485"},{"name":"Punch Line Comedy Club","address":"444 Battery Street","city":"San Francisco","state":"CA","zip":"94111","lat":"37.795486","lng":"-122.4001359"},{"name":"Q Bar","address":"456 Castro Street","city":"San Francisco","state":"CA","zip":"94114","lat":"37.7616058","lng":"-122.4353137"},{"name":"Que Syrah","address":"230 West Portal Avenue","city":"San Francisco","state":"CA","zip":"94127","lat":"37.7387492","lng":"-122.4687088"},{"name":"R &amp; G Lounge","address":"631 Kearny Street","city":"San Francisco","state":"CA","zip":"94108","lat":"37.7940903","lng":"-122.4049254"},{"name":"R Bar","address":"1176 Sutter Street","city":"San Francisco","state":"CA","zip":"94109","lat":"37.7880383","lng":"-122.4198636"},{"name":"R.O.H","address":"1500 Van Ness Avenue","city":"San Francisco","state":"CA","zip":"94109","lat":"37.78981479999999","lng":"-122.4217291"},{"name":"R.O.H Bar","address":"1500 Van Ness Avenue","city":"San Francisco","state":"CA","zip":"94109","lat":"37.78981479999999","lng":"-122.4217291"},{"name":"Raw Satisfaction","address":"264 Dolores Street","city":"San Francisco","state":"CA","zip":"94103","lat":"37.7652202","lng":"-122.4269298"},{"name":"Red Dog Restaurant","address":"303 2nd Street","city":"San Francisco","state":"CA","zip":"94107","lat":"37.7856757","lng":"-122.3958433"},{"name":"Red Forest Whisper","address":"535 Florida Street","city":"San Francisco","state":"CA","zip":"94110","lat":"37.7624942","lng":"-122.4109542"},{"name":"Redford","address":"673 Geary St","city":"San Francisco","state":"CA","zip":"94102","lat":"37.7864948","lng":"-122.4142594"},{"name":"Reed &amp; Greenough","address":"3251 Scott Street","city":"San Francisco","state":"CA","zip":"94123","lat":"37.799838","lng":"-122.4413992"},{"name":"Rentalpoboxes Club","address":"1445 Post Street","city":"San Francisco","state":"CA","zip":"94109","lat":"37.7861202","lng":"-122.4256674"},{"name":"Restaurant Chee &amp; Water Bar","address":"133 Stillman Street","city":"San Francisco","state":"CA","zip":"94107","lat":"37.7809623","lng":"-122.3970239"},{"name":"Richmond Republic Draught House","address":"642 Clement Street","city":"San Francisco","state":"CA","zip":"94118","lat":"37.7830871","lng":"-122.4662509"},{"name":"Rickhouse","address":"246 Kearny Street","city":"San Francisco","state":"CA","zip":"94108","lat":"37.79049930000001","lng":"-122.4038395"},{"name":"Ritch Street Supper Club","address":"330 Ritch Street","city":"San Francisco","state":"CA","zip":"94107","lat":"37.7788625","lng":"-122.3938303"},{"name":"Rm 212","address":"690 Sacramento Street","city":"San Francisco","state":"CA","zip":"94111","lat":"37.7937218","lng":"-122.404362"},{"name":"Rn74","address":"301 Mission Street","city":"San Francisco","state":"CA","zip":"94105","lat":"37.7903824","lng":"-122.3961531"},{"name":"Roc Bar &amp; Nightclub","address":"2801 Leavenworth Street","city":"San Francisco","state":"CA","zip":"94133","lat":"37.8070209","lng":"-122.4193841"},{"name":"Rock Bar","address":"80 29th Street","city":"San Francisco","state":"CA","zip":"94110","lat":"37.7441631","lng":"-122.4220337"},{"name":"Rogue Ales Public House","address":"673 Union Street","city":"San Francisco","state":"CA","zip":"94133","lat":"37.8000725","lng":"-122.4105724"},{"name":"Rosewood","address":"732 Broadway","city":"San Francisco","state":"CA","zip":"94133","lat":"37.7977472","lng":"-122.4091852"},{"name":"Rouge et Blanc","address":"334 Grant Avenue","city":"San Francisco","state":"CA","zip":"94108","lat":"37.7902023","lng":"-122.4054049"},{"name":"Route 101","address":"1332 Van Ness Avenue","city":"San Francisco","state":"CA","zip":"94109","lat":"37.7881294","lng":"-122.4216528"},{"name":"Rove Kitchen","address":"678 Post Street","city":"San Francisco","state":"CA","zip":"94109","lat":"37.7879253","lng":"-122.4129196"},{"name":"Royal Exchange","address":"301 Sacramento Street","city":"San Francisco","state":"CA","zip":"94111","lat":"37.7941431","lng":"-122.3992091"},{"name":"Royal Oak","address":"2201 Polk Street","city":"San Francisco","state":"CA","zip":"94109","lat":"37.79702169999999","lng":"-122.4221937"},{"name":"Royale","address":"1326 Grant Avenue","city":"San Francisco","state":"CA","zip":"94133","lat":"37.7992662","lng":"-122.4071498"},{"name":"Ruby Skye","address":"420 Mason Street","city":"San Francisco","state":"CA","zip":"94102","lat":"37.7875878","lng":"-122.4096056"},{"name":"Rumors","address":"398 7th Street","city":"San Francisco","state":"CA","zip":"94103","lat":"37.77555270000001","lng":"-122.4065609"},{"name":"Ruru Kitchen","address":"532 Market Street","city":"San Francisco","state":"CA","zip":"94104","lat":"37.790593","lng":"-122.4003129"},{"name":"Rusted Mule","address":"1217 Sutter Street","city":"San Francisco","state":"CA","zip":"94109","lat":"37.7874672","lng":"-122.4204681"},{"name":"Rx","address":"701 Geary Street","city":"San Francisco","state":"CA","zip":"94109","lat":"37.7863003","lng":"-122.4150038"},{"name":"Rye","address":"688 Geary Street","city":"San Francisco","state":"CA","zip":"94102","lat":"37.78670779999999","lng":"-122.4146193"},{"name":"S F Italian Athletic Club","address":"1630 Stockton Street","city":"San Francisco","state":"CA","zip":"94133","lat":"37.8008786","lng":"-122.4089861"},{"name":"S F Mix","address":"4086 18th Street","city":"San Francisco","state":"CA","zip":"94114","lat":"37.7610236","lng":"-122.4345258"},{"name":"Sabella &amp; La Torre","address":"2809 Taylor Street","city":"San Francisco","state":"CA","zip":"94133","lat":"37.8084592","lng":"-122.4159347"},{"name":"Sakana","address":"605 Post Street","city":"San Francisco","state":"CA","zip":"94109","lat":"37.7877242","lng":"-122.4120195"},{"name":"Sam Jordan&#x27;s Bar and Grill","address":"4004 3rd Street","city":"San Francisco","state":"CA","zip":"94124","lat":"37.7410475","lng":"-122.3888398"},{"name":"Sams Tavern","address":"368 Bush Street","city":"San Francisco","state":"CA","zip":"94104","lat":"37.7910009","lng":"-122.4035876"},{"name":"San Francisco Athletic Club","address":"1750 Divisadero Street","city":"San Francisco","state":"CA","zip":"94115","lat":"37.7860568","lng":"-122.439785"},{"name":"San Francisco Brewing Co. Tap Room","address":"2175 Market Street","city":"San Francisco","state":"CA","zip":"94114","lat":"37.7663383","lng":"-122.4300466"},{"name":"Sapoten","address":"3420 Balboa Street","city":"San Francisco","state":"CA","zip":"94121","lat":"37.7759183","lng":"-122.4956456"},{"name":"Savoy Tivoli","address":"1434 Grant Avenue","city":"San Francisco","state":"CA","zip":"94133","lat":"37.8002402","lng":"-122.407371"},{"name":"Saw Entertainment Ltd","address":"1031 Kearny Street","city":"San Francisco","state":"CA","zip":"94133","lat":"37.79758","lng":"-122.405734"},{"name":"Scala&#x27;s Bistro","address":"432 Powell Street","city":"San Francisco","state":"CA","zip":"94102","lat":"37.7888118","lng":"-122.4083793"},{"name":"Scarlet Lounge","address":"408 Clement Street","city":"San Francisco","state":"CA","zip":"94118","lat":"37.7832175","lng":"-122.4637743"},{"name":"Scoma&#x27;s Fisherman&#x27;s Wharf","address":"1965 Al Scoma Way","city":"San Francisco","state":"CA","zip":"94133","lat":"37.8089443","lng":"-122.4184597"},{"name":"Score Sports Bar &amp; Lounge","address":"498 Broadway","city":"San Francisco","state":"CA","zip":"94133","lat":"37.7982351","lng":"-122.4054098"},{"name":"Sessions at the Presidio","address":"1 Letterman Drive","city":"San Francisco","state":"CA","zip":"94129","lat":"37.798845","lng":"-122.4493378"},{"name":"Shanghai 1930--CLOSED","address":"133 Steuart Street","city":"San Francisco","state":"CA","zip":"94105","lat":"37.7930933","lng":"-122.3925683"},{"name":"Shanghai Kelly&#x27;s","address":"2064 Polk Street","city":"San Francisco","state":"CA","zip":"94109","lat":"37.7958531","lng":"-122.4216"},{"name":"Shotwell&#x27;s","address":"3349 20th Street","city":"San Francisco","state":"CA","zip":"94110","lat":"37.75874","lng":"-122.4156501"},{"name":"Showdown","address":"10 6th Street","city":"San Francisco","state":"CA","zip":"94103","lat":"37.78183569999999","lng":"-122.4100989"},{"name":"Siberia","address":"424 Treat Avenue","city":"San Francisco","state":"CA","zip":"94110","lat":"37.7634488","lng":"-122.4138962"},{"name":"Silver Clouds","address":"1994 Lombard Street","city":"San Francisco","state":"CA","zip":"94123","lat":"37.8003619","lng":"-122.434332"},{"name":"SIP BAR &amp; LOUNGE","address":"787 Broadway","city":"San Francisco","state":"CA","zip":"94133","lat":"37.7973181","lng":"-122.410047"},{"name":"Sip Tea Room","address":"721 Lincoln Way","city":"San Francisco","state":"CA","zip":"94122","lat":"37.7657698","lng":"-122.4658419"},{"name":"Sky Deck Bar","address":"222 Sansome Street","city":"San Francisco","state":"CA","zip":"94104","lat":"37.7924577","lng":"-122.4007857"},{"name":"Skylark","address":"3089 16th Street","city":"San Francisco","state":"CA","zip":"94103","lat":"37.7647142","lng":"-122.4216181"},{"name":"Slate","address":"2925 16th Street","city":"San Francisco","state":"CA","zip":"94103","lat":"37.765035","lng":"-122.418122"},{"name":"Slim&#x27;s","address":"333 11th Street","city":"San Francisco","state":"CA","zip":"94103","lat":"37.7715426","lng":"-122.4133157"},{"name":"Smokestack","address":"2505 3rd Street","city":"San Francisco","state":"CA","zip":"94107","lat":"37.757722","lng":"-122.3879496"},{"name":"Smuggler&#x27;s Cove","address":"650 Gough Street","city":"San Francisco","state":"CA","zip":"94102","lat":"37.7795727","lng":"-122.423355"},{"name":"Social Kitchen &amp; Brewery","address":"1326 9th Avenue","city":"San Francisco","state":"CA","zip":"94122","lat":"37.7634951","lng":"-122.4660283"},{"name":"Soluna Cafe &amp; Lounge","address":"272 Mcallister St","city":"San Francisco","state":"CA","zip":"94102","lat":"37.781214","lng":"-122.4116422"},{"name":"Soluna Cafe &amp; Lounge","address":"272 McAllister Street","city":"San Francisco","state":"CA","zip":"94102","lat":"37.780678","lng":"-122.4165625"},{"name":"Soma Lounge","address":"1525 Mission Street","city":"San Francisco","state":"CA","zip":"94103","lat":"37.7737843","lng":"-122.4175169"},{"name":"Sous Beurre Kitchen","address":"2704 24th Street","city":"San Francisco","state":"CA","zip":"94110","lat":"37.753106","lng":"-122.4067338"},{"name":"Southend Grill &#x27;N&#x27; Bar","address":"1499 Valencia Street","city":"San Francisco","state":"CA","zip":"94110","lat":"37.7490388","lng":"-122.4201442"},{"name":"Southern Pacific Brewing","address":"620 Treat Avenue","city":"San Francisco","state":"CA","zip":"94110","lat":"37.7600483","lng":"-122.4138462"},{"name":"Sozai Restaurant and Sake Lounge","address":"1500 Irving Street","city":"San Francisco","state":"CA","zip":"94122","lat":"37.7638466","lng":"-122.4741211"},{"name":"Speakeasy Ales &amp; Lagers","address":"1195 Evans Avenue","city":"San Francisco","state":"CA","zip":"94124","lat":"37.73816559999999","lng":"-122.3806629"},{"name":"St Francis Yacht Club","address":"700 Marina Boulevard","city":"San Francisco","state":"CA","zip":"94123","lat":"37.8053388","lng":"-122.4461068"},{"name":"Starboard","address":"2919 16th Street","city":"San Francisco","state":"CA","zip":"94103","lat":"37.7650069","lng":"-122.4180221"},{"name":"Starlight Room","address":"450 Powell Street","city":"San Francisco","state":"CA","zip":"94102","lat":"37.7890363","lng":"-122.4083445"},{"name":"Steamed Sloth Inc","address":"1875 Union Street","city":"San Francisco","state":"CA","zip":"94123","lat":"37.797598","lng":"-122.4300489"},{"name":"Steap Tea Bar","address":"827 Sacramento Street","city":"San Francisco","state":"CA","zip":"94108","lat":"37.7932518","lng":"-122.4066108"},{"name":"Steep Brew Taproom","address":"399 4th Street","city":"San Francisco","state":"CA","zip":"94107","lat":"37.7812623","lng":"-122.3997825"},{"name":"Steffs","address":"141 2nd Street","city":"San Francisco","state":"CA","zip":"94105","lat":"37.7876059","lng":"-122.3989719"},{"name":"Steins","address":"731 Clement Street","city":"San Francisco","state":"CA","zip":"94118","lat":"37.7826521","lng":"-122.4671797"},{"name":"Sugar Lounge","address":"377 Hayes Street","city":"San Francisco","state":"CA","zip":"94102","lat":"37.7768267","lng":"-122.4225407"},{"name":"Summer Place","address":"801 Bush Street","city":"San Francisco","state":"CA","zip":"94108","lat":"37.7897556","lng":"-122.410595"},{"name":"Supperclub San Francisco","address":"657 Harrison Street","city":"San Francisco","state":"CA","zip":"94107","lat":"37.7831065","lng":"-122.3963301"},{"name":"Sutter Station Tavern-Cocktail Lounge","address":"554 Market Street","city":"San Francisco","state":"CA","zip":"94104","lat":"37.7899599","lng":"-122.4009151"},{"name":"Swedish American Hall","address":"2174 Market Street","city":"San Francisco","state":"CA","zip":"94114","lat":"37.7666642","lng":"-122.4305185"},{"name":"Sweetie&#x27;s Art Bar","address":"475 Francisco Street","city":"San Francisco","state":"CA","zip":"94133","lat":"37.8046506","lng":"-122.4129371"},{"name":"Swig","address":"561 Geary Street","city":"San Francisco","state":"CA","zip":"94102","lat":"37.78664270000001","lng":"-122.4124375"},{"name":"Swirl On Castro","address":"572 Castro Street","city":"San Francisco","state":"CA","zip":"94114","lat":"37.7597549","lng":"-122.4352017"},{"name":"T J &amp; R Pub Inc","address":"2816 Diamond Street","city":"San Francisco","state":"CA","zip":"94131","lat":"37.7341845","lng":"-122.4341597"},{"name":"Tabletop Tap House","address":"175 4th Street","city":"San Francisco","state":"CA","zip":"94103","lat":"37.78383609999999","lng":"-122.4030033"},{"name":"Taj Campton Place Restaurant","address":"340 Stockton Street","city":"San Francisco","state":"CA","zip":"94108","lat":"37.7890965","lng":"-122.4065745"},{"name":"Tank 18 Winery","address":"1345 Howard Street","city":"San Francisco","state":"CA","zip":"94103","lat":"37.7742406","lng":"-122.4136101"},{"name":"Tap 415","address":"845 Market Street","city":"San Francisco","state":"CA","zip":"94103","lat":"37.784219","lng":"-122.406176"},{"name":"Tataki","address":"678 Chenery Street","city":"San Francisco","state":"CA","zip":"94131","lat":"37.7346046","lng":"-122.4336521"},{"name":"Taverna Aventine","address":"582 Washington Street","city":"San Francisco","state":"CA","zip":"94111","lat":"37.7958183","lng":"-122.4028798"},{"name":"Ted&#x27;s Sports Bar &amp; Grill","address":"312 Harriet Street","city":"San Francisco","state":"CA","zip":"94103","lat":"37.7752983","lng":"-122.4029017"},{"name":"Tee Off Bar &amp; Grill","address":"3129 Clement Street","city":"San Francisco","state":"CA","zip":"94121","lat":"37.7814398","lng":"-122.4929594"},{"name":"Telegraph Hill Associates","address":"2241 Chestnut Street","city":"San Francisco","state":"CA","zip":"94123","lat":"37.8001603","lng":"-122.440202"},{"name":"Tempest Bar","address":"431 Natoma Street","city":"San Francisco","state":"CA","zip":"94103","lat":"37.7811581","lng":"-122.4062434"},{"name":"Terroir","address":"1116 Folsom Street","city":"San Francisco","state":"CA","zip":"94103","lat":"37.7766256","lng":"-122.4084551"},{"name":"The 500 Club","address":"500 Guerrero Street","city":"San Francisco","state":"CA","zip":"94110","lat":"37.7630249","lng":"-122.4241968"},{"name":"The Alembic","address":"1725 Haight Street","city":"San Francisco","state":"CA","zip":"94117","lat":"37.7693079","lng":"-122.4511505"},{"name":"The Alibi","address":"839 Geary Street","city":"San Francisco","state":"CA","zip":"94109","lat":"37.7861207","lng":"-122.4170595"},{"name":"The Armory Club","address":"1799 Mission Street","city":"San Francisco","state":"CA","zip":"94103","lat":"37.7684172","lng":"-122.419716"},{"name":"The Beer Hall","address":"1 Polk Street","city":"San Francisco","state":"CA","zip":"94102","lat":"37.77678700000001","lng":"-122.418101"},{"name":"The Bell Tower","address":"1900 Polk Street","city":"San Francisco","state":"CA","zip":"94109","lat":"37.7943304","lng":"-122.4212645"},{"name":"The Bitter End","address":"441 Clement Street","city":"San Francisco","state":"CA","zip":"94118","lat":"37.7827265","lng":"-122.4640397"},{"name":"The Black Horse London Pub","address":"1514 Union Street","city":"San Francisco","state":"CA","zip":"94123","lat":"37.798609","lng":"-122.4244905"},{"name":"The Brixton on 2nd","address":"701 2nd Street","city":"San Francisco","state":"CA","zip":"94107","lat":"37.7806206","lng":"-122.3900016"},{"name":"The Buccaneer","address":"2155 Polk Street","city":"San Francisco","state":"CA","zip":"94109","lat":"37.7966504","lng":"-122.4221227"},{"name":"The Chapel","address":"777 Valencia Street","city":"San Francisco","state":"CA","zip":"94110","lat":"37.7605088","lng":"-122.4212203"},{"name":"The Chieftain Irish Pub &amp; Restaurant","address":"198 5th Street","city":"San Francisco","state":"CA","zip":"94103","lat":"37.781468","lng":"-122.405287"},{"name":"The Cinch","address":"1723 Polk Street","city":"San Francisco","state":"CA","zip":"94109","lat":"37.7927563","lng":"-122.4214518"},{"name":"The Cosmo Bar &amp; Lounge","address":"440 Broadway","city":"San Francisco","state":"CA","zip":"94133","lat":"37.7983532","lng":"-122.4046718"},{"name":"The Crafty Fox Ale House","address":"1700 Mission Street","city":"San Francisco","state":"CA","zip":"94103","lat":"37.7698262","lng":"-122.4204105"},{"name":"The Dubliner","address":"3838 24th Street","city":"San Francisco","state":"CA","zip":"94114","lat":"37.7517866","lng":"-122.4283512"},{"name":"The Dubliner Bar West Portal","address":"328 West Portal Avenue","city":"San Francisco","state":"CA","zip":"94127","lat":"37.737787","lng":"-122.4697999"},{"name":"The Eagles Drift Inn","address":"1232 Noriega Street","city":"San Francisco","state":"CA","zip":"94122","lat":"37.7544435","lng":"-122.4770855"},{"name":"The Edge","address":"4149 18th Street","city":"San Francisco","state":"CA","zip":"94114","lat":"37.7606565","lng":"-122.4360035"},{"name":"The Endup","address":"401 6th Street","city":"San Francisco","state":"CA","zip":"94103","lat":"37.7772746","lng":"-122.4037695"},{"name":"The European","address":"490 Geary Street","city":"San Francisco","state":"CA","zip":"94102","lat":"37.7871218","lng":"-122.4113976"},{"name":"The Fillmore","address":"1805 Geary Boulevard","city":"San Francisco","state":"CA","zip":"94115","lat":"37.7840042","lng":"-122.4331332"},{"name":"The Fishbowl Bar &amp; Grill","address":"1854 Divisadero Street","city":"San Francisco","state":"CA","zip":"94115","lat":"37.7869217","lng":"-122.4400223"},{"name":"The Girls Lounge","address":"4717 Geary Boulevard","city":"San Francisco","state":"CA","zip":"94118","lat":"37.780577","lng":"-122.4699467"},{"name":"The Greens Sports Bar","address":"2239 Polk Street","city":"San Francisco","state":"CA","zip":"94109","lat":"37.7975626","lng":"-122.4223694"},{"name":"The Grubstake","address":"1525 Pine Street","city":"San Francisco","state":"CA","zip":"94109","lat":"37.789368","lng":"-122.4208221"},{"name":"The Hall","address":"1028 Market Street","city":"San Francisco","state":"CA","zip":"94102","lat":"37.7818338","lng":"-122.4112267"},{"name":"The Hidden Vine","address":"408 Merchant Street","city":"San Francisco","state":"CA","zip":"94111","lat":"37.7955933","lng":"-122.4007555"},{"name":"The Hidden Vine","address":"620 Post Street","city":"San Francisco","state":"CA","zip":"94109","lat":"37.78801929999999","lng":"-122.4121724"},{"name":"The Holy Cow","address":"1535 Folsom Street","city":"San Francisco","state":"CA","zip":"94103","lat":"37.7713728","lng":"-122.4143025"},{"name":"The Homestead","address":"2301 Folsom Street","city":"San Francisco","state":"CA","zip":"94110","lat":"37.7604123","lng":"-122.4146016"},{"name":"The Interval","address":"2 Marina Boulevard","city":"San Francisco","state":"CA","zip":"94123","lat":"37.8053418","lng":"-122.4324908"},{"name":"The Irish Bank","address":"10 Mark Lane","city":"San Francisco","state":"CA","zip":"94108","lat":"37.7904802","lng":"-122.4046843"},{"name":"The JCB Tasting Lounge","address":"600 Stockton Street","city":"San Francisco","state":"CA","zip":"94108","lat":"37.7918754","lng":"-122.4070392"},{"name":"The Lister Bar","address":"77 Cambon Drive","city":"San Francisco","state":"CA","zip":"94132","lat":"37.7176835","lng":"-122.4737793"},{"name":"The Mad Dog In The Fog","address":"530 Haight Street","city":"San Francisco","state":"CA","zip":"94117","lat":"37.7721618","lng":"-122.431029"},{"name":"The Meatball Bar","address":"126 Sutter Street","city":"San Francisco","state":"CA","zip":"94104","lat":"37.790078","lng":"-122.402794"},{"name":"The Meatball Bar Hayes St","address":"602 Hayes Street","city":"San Francisco","state":"CA","zip":"94102","lat":"37.7767801","lng":"-122.4265958"},{"name":"The Mint Karaoke Lounge","address":"1942 Market Street","city":"San Francisco","state":"CA","zip":"94102","lat":"37.770277","lng":"-122.4258163"},{"name":"The Mint Space","address":"3153 California Street","city":"San Francisco","state":"CA","zip":"94115","lat":"37.7873189","lng":"-122.4462082"},{"name":"The Monk&#x27;s Kettle","address":"3141 16th Street","city":"San Francisco","state":"CA","zip":"94103","lat":"37.7647206","lng":"-122.422986"},{"name":"The Nags Head","address":"5346 Geary Boulevard","city":"San Francisco","state":"CA","zip":"94121","lat":"37.7807171","lng":"-122.4770739"},{"name":"The Office","address":"194 Church Street","city":"San Francisco","state":"CA","zip":"94114","lat":"37.7679404","lng":"-122.4291907"},{"name":"The Outsiders","address":"894 Geary Street","city":"San Francisco","state":"CA","zip":"94109","lat":"37.7863512","lng":"-122.4180333"},{"name":"The Page","address":"298 Divisadero Street","city":"San Francisco","state":"CA","zip":"94117","lat":"37.7721319","lng":"-122.4369257"},{"name":"The Peak&#x27;s","address":"1316 Castro Street","city":"San Francisco","state":"CA","zip":"94114","lat":"37.7510037","lng":"-122.4343059"},{"name":"The Phoenix Bar &amp; Restaurant","address":"811 Valencia Street","city":"San Francisco","state":"CA","zip":"94110","lat":"37.7598422","lng":"-122.4210876"},{"name":"The Plough &amp; Stars","address":"116 Clement Street","city":"San Francisco","state":"CA","zip":"94118","lat":"37.7833917","lng":"-122.4605497"},{"name":"The Pour House","address":"1327 Polk Street","city":"San Francisco","state":"CA","zip":"94109","lat":"37.789051","lng":"-122.4206102"},{"name":"The Pub","address":"851 Beach Street","city":"San Francisco","state":"CA","zip":"94109","lat":"37.8062216","lng":"-122.4227688"},{"name":"The Pub","address":"1675 Owens Street","city":"San Francisco","state":"CA","zip":"94158","lat":"37.7680799","lng":"-122.393011"},{"name":"The Riddler","address":"528 Laguna Street","city":"San Francisco","state":"CA","zip":"94102","lat":"37.7759402","lng":"-122.4259985"},{"name":"The Riptide","address":"3639 Taraval Street","city":"San Francisco","state":"CA","zip":"94116","lat":"37.7415774","lng":"-122.5053735"},{"name":"The Saloon","address":"1232 Grant Avenue","city":"San Francisco","state":"CA","zip":"94133","lat":"37.7985867","lng":"-122.4070229"},{"name":"The Spot Restaurant","address":"2325 Taraval Street","city":"San Francisco","state":"CA","zip":"94116","lat":"37.7421809","lng":"-122.4911737"},{"name":"The Stud Bar","address":"399 9th Street","city":"San Francisco","state":"CA","zip":"94103","lat":"37.7728134","lng":"-122.4099831"},{"name":"The Sycamore","address":"2140 Mission Street","city":"San Francisco","state":"CA","zip":"94110","lat":"37.7627643","lng":"-122.419727"},{"name":"The Taco Shop at Underdogs","address":"1824 Irving Street","city":"San Francisco","state":"CA","zip":"94122","lat":"37.7638176","lng":"-122.4777046"},{"name":"The Tipsy Pig","address":"2231 Chestnut Street","city":"San Francisco","state":"CA","zip":"94123","lat":"37.8001359","lng":"-122.4400568"},{"name":"The Wild Side West","address":"424 Cortland Avenue","city":"San Francisco","state":"CA","zip":"94110","lat":"37.7390005","lng":"-122.4172051"},{"name":"The Wreck Room","address":"1390 California Street","city":"San Francisco","state":"CA","zip":"94109","lat":"37.7912325","lng":"-122.4171976"},{"name":"Thee Parkside","address":"1600 17th Street","city":"San Francisco","state":"CA","zip":"94107","lat":"37.7651653","lng":"-122.3998925"},{"name":"Thieves Tavern","address":"496 14th Street","city":"San Francisco","state":"CA","zip":"94103","lat":"37.7681078","lng":"-122.4241725"},{"name":"Third Rail","address":"628 20th Street","city":"San Francisco","state":"CA","zip":"94107","lat":"37.7606934","lng":"-122.3881503"},{"name":"Thread Lounge Inc","address":"60 29th Street","city":"San Francisco","state":"CA","zip":"94110","lat":"37.7441807","lng":"-122.4214636"},{"name":"Tiki Haven","address":"1334 Noriega St","city":"San Francisco","state":"CA","zip":"94116","lat":"37.754295","lng":"-122.4781838"},{"name":"Titanic","address":"841 Larkin Street","city":"San Francisco","state":"CA","zip":"94109","lat":"37.7858289","lng":"-122.4183209"},{"name":"Toad Hall","address":"4146 18th Street","city":"San Francisco","state":"CA","zip":"94114","lat":"37.7609869","lng":"-122.4358032"},{"name":"Toad&#x27;s Food &amp; Drink","address":"1499 Valencia Street","city":"San Francisco","state":"CA","zip":"94110","lat":"37.7490388","lng":"-122.4201442"},{"name":"Tommy&#x27;s Joynt","address":"1101 Geary Boulevard","city":"San Francisco","state":"CA","zip":"94109","lat":"37.785533","lng":"-122.4217955"},{"name":"Tonga Room","address":"950 Mason Street","city":"San Francisco","state":"CA","zip":"94108","lat":"37.7923883","lng":"-122.4100923"},{"name":"Tonic","address":"2360 Polk Street","city":"San Francisco","state":"CA","zip":"94109","lat":"37.7987047","lng":"-122.4221676"},{"name":"Tony Nik&#x27;s Cafe","address":"1534 Stockton Street","city":"San Francisco","state":"CA","zip":"94133","lat":"37.8000496","lng":"-122.4088995"},{"name":"Tony&#x27;s Cable Car Restaurant","address":"2500 Geary Boulevard","city":"San Francisco","state":"CA","zip":"94115","lat":"37.782823","lng":"-122.4450503"},{"name":"Top of the Mark","address":"1 Nob Hill Place","city":"San Francisco","state":"CA","zip":"94108","lat":"37.7911465","lng":"-122.4101366"},{"name":"Tope","address":"1326 Grant Avenue","city":"San Francisco","state":"CA","zip":"94133","lat":"37.7992662","lng":"-122.4071498"},{"name":"Topsy&#x27;s Fun House","address":"260 Kearny Street","city":"San Francisco","state":"CA","zip":"94104","lat":"37.7906165","lng":"-122.4037096"},{"name":"Toronado","address":"547 Haight Street","city":"San Francisco","state":"CA","zip":"94117","lat":"37.7718304","lng":"-122.4311305"},{"name":"Trad&#x27;r Sam","address":"6150 Geary Boulevard","city":"San Francisco","state":"CA","zip":"94121","lat":"37.7803737","lng":"-122.4856604"},{"name":"Tradition","address":"441 Jones Street","city":"San Francisco","state":"CA","zip":"94102","lat":"37.7855303","lng":"-122.4132072"},{"name":"Trax","address":"1437 Haight Street","city":"San Francisco","state":"CA","zip":"94117","lat":"37.7699782","lng":"-122.4460345"},{"name":"Tres Agaves Restaurant","address":"130 Townsend Street","city":"San Francisco","state":"CA","zip":"94107","lat":"37.7802837","lng":"-122.391462"},{"name":"Trick Dog","address":"3010 20th Street","city":"San Francisco","state":"CA","zip":"94110","lat":"37.7593217","lng":"-122.4111748"},{"name":"Triple Voodoo Brewery","address":"2245 3rd Street","city":"San Francisco","state":"CA","zip":"94107","lat":"37.761219","lng":"-122.3884587"},{"name":"Tropi-Gala","address":"358 Ocean Avenue","city":"San Francisco","state":"CA","zip":"94112","lat":"37.7231137","lng":"-122.4441323"},{"name":"Tunner Top","address":"601 Bush Street","city":"San Francisco","state":"CA","zip":"94108","lat":"37.7902053","lng":"-122.4073951"},{"name":"Twenty Five Lusk","address":"25 Lusk Street","city":"San Francisco","state":"CA","zip":"94107","lat":"37.7785673","lng":"-122.3943829"},{"name":"Twin Peaks Tavern","address":"401 Castro Street","city":"San Francisco","state":"CA","zip":"94114","lat":"37.7622826","lng":"-122.4349365"},{"name":"Two Lips Bar &amp; Lounge","address":"1414 Market Street","city":"San Francisco","state":"CA","zip":"94102","lat":"37.7763296","lng":"-122.4182313"},{"name":"Two Sisters Bar and Books","address":"579 Hayes Street","city":"San Francisco","state":"CA","zip":"94102","lat":"37.7764194","lng":"-122.4258472"},{"name":"Under Dog Sports Bar &amp; Grill","address":"1824 Irving Street","city":"San Francisco","state":"CA","zip":"94122","lat":"37.7638176","lng":"-122.4777046"},{"name":"Union Square Sports Bar","address":"115 Mason Street","city":"San Francisco","state":"CA","zip":"94102","lat":"37.7846083","lng":"-122.409672"},{"name":"United Love Inc","address":"1410 Steiner Street","city":"San Francisco","state":"CA","zip":"94115","lat":"37.7823632","lng":"-122.4339113"},{"name":"Unitedstatespostalservice Club","address":"1260 Bush Street","city":"San Francisco","state":"CA","zip":"94109","lat":"37.7892027","lng":"-122.4180506"},{"name":"University Club","address":"800 Powell Street","city":"San Francisco","state":"CA","zip":"94108","lat":"37.792319","lng":"-122.4089861"},{"name":"Upcider","address":"1160 Polk Street","city":"San Francisco","state":"CA","zip":"94109","lat":"37.7875316","lng":"-122.4199315"},{"name":"Uptown","address":"200 Capp Street","city":"San Francisco","state":"CA","zip":"94110","lat":"37.7631901","lng":"-122.4186065"},{"name":"Urban Tavern","address":"333 O&#x27;Farrell Street","city":"San Francisco","state":"CA","zip":"94102","lat":"37.7857289","lng":"-122.4104463"},{"name":"Usmailforwarding Club","address":"1124 Sutter Street","city":"San Francisco","state":"CA","zip":"94109","lat":"37.7880899","lng":"-122.4190508"},{"name":"Veritas","address":"691 O&#x27;Farrell Street","city":"San Francisco","state":"CA","zip":"94109","lat":"37.7852205","lng":"-122.4159761"},{"name":"Vertigo","address":"1160 Polk Street","city":"San Francisco","state":"CA","zip":"94109","lat":"37.7875316","lng":"-122.4199315"},{"name":"Vesuvio","address":"255 Columbus Avenue","city":"San Francisco","state":"CA","zip":"94133","lat":"37.7974835","lng":"-122.4065082"},{"name":"Victory Hall and Parlor","address":"360 Ritch Street","city":"San Francisco","state":"CA","zip":"94107","lat":"37.778825","lng":"-122.3940289"},{"name":"Vieni Vieni Lucky Spot","address":"1431 Stockton Street","city":"San Francisco","state":"CA","zip":"94133","lat":"37.7989957","lng":"-122.4090795"},{"name":"Vin Debut","address":"9 West Portal Avenue","city":"San Francisco","state":"CA","zip":"94127","lat":"37.7405959","lng":"-122.4657866"},{"name":"Vino Venue","address":"686 Mission Street","city":"San Francisco","state":"CA","zip":"94105","lat":"37.7866616","lng":"-122.4018328"},{"name":"Virgil&#x27;s Sea Room","address":"3152 Mission Street","city":"San Francisco","state":"CA","zip":"94110","lat":"37.7469249","lng":"-122.419351"},{"name":"Vitrine","address":"125 3rd Street","city":"San Francisco","state":"CA","zip":"94103","lat":"37.7862856","lng":"-122.4013086"},{"name":"Volume Services","address":"650 Gilman Avenue","city":"San Francisco","state":"CA","zip":"94124","lat":"37.7157532","lng":"-122.383352"},{"name":"Waterfront Restaurant","address":"7 The Embarcadero","city":"San Francisco","state":"CA","zip":"94111","lat":"37.799346","lng":"-122.395618"},{"name":"Wattle Creek Winery","address":"900 North Point Street","city":"San Francisco","state":"CA","zip":"94109","lat":"37.8056739","lng":"-122.4223763"},{"name":"Wayfare Tavern","address":"558 Sacramento Street","city":"San Francisco","state":"CA","zip":"94111","lat":"37.7940228","lng":"-122.402342"},{"name":"Waystone","address":"992 Market Street","city":"San Francisco","state":"CA","zip":"94102","lat":"37.7825015","lng":"-122.4102784"},{"name":"West Burger N More","address":"2240 Mission Street","city":"San Francisco","state":"CA","zip":"94110","lat":"37.7611238","lng":"-122.4195833"},{"name":"Whiskey Thieves","address":"839 Geary Street","city":"San Francisco","state":"CA","zip":"94109","lat":"37.7861207","lng":"-122.4170595"},{"name":"Whiskies of The World Expo","address":"222 Mason Street","city":"San Francisco","state":"CA","zip":"94102","lat":"37.7860081","lng":"-122.4092959"},{"name":"White Horse Restaurant","address":"635 Sutter Street","city":"San Francisco","state":"CA","zip":"94102","lat":"37.7885539","lng":"-122.4108619"},{"name":"White Rabbit","address":"3138 Fillmore Street","city":"San Francisco","state":"CA","zip":"94123","lat":"37.7987021","lng":"-122.4355986"},{"name":"Whitechapel","address":"600 Polk Street","city":"San Francisco","state":"CA","zip":"94102","lat":"37.7823999","lng":"-122.4188759"},{"name":"Wild Hare","address":"2801 California Street","city":"San Francisco","state":"CA","zip":"94115","lat":"37.7879102","lng":"-122.4405764"},{"name":"Wildhawk","address":"3464 19th Street","city":"San Francisco","state":"CA","zip":"94110","lat":"37.7602784","lng":"-122.4207889"},{"name":"Willkommen Wurst.bier.garten","address":"2198 Market Street","city":"San Francisco","state":"CA","zip":"94114","lat":"37.7664214","lng":"-122.4307892"},{"name":"Wine Jar","address":"1870 Fillmore Street","city":"San Francisco","state":"CA","zip":"94115","lat":"37.7867544","lng":"-122.4333052"},{"name":"Wines Of California Wine Bar","address":"Pier 39","city":"San Francisco","state":"CA","zip":"94133","lat":"37.80867300000001","lng":"-122.409821"},{"name":"Wipeout Bar &amp; Grill","address":"Pier 39 , A-O2","city":"San Francisco","state":"CA","zip":"94133","lat":"37.80867300000001","lng":"-122.409821"},{"name":"Wish","address":"1539 Folsom Street","city":"San Francisco","state":"CA","zip":"94103","lat":"37.7712773","lng":"-122.4144397"},{"name":"Woody Zips","address":"1609 Powell Street","city":"San Francisco","state":"CA","zip":"94133","lat":"37.7994886","lng":"-122.4108462"},{"name":"Would You Believe","address":"4652 Geary Boulevard","city":"San Francisco","state":"CA","zip":"94118","lat":"37.7810583","lng":"-122.4695207"},{"name":"Yancy&#x27;s Saloon","address":"734 Irving Street","city":"San Francisco","state":"CA","zip":"94122","lat":"37.764243","lng":"-122.465875"},{"name":"Z &amp; Y Bistro","address":"606 Jackson Street","city":"San Francisco","state":"CA","zip":"94133","lat":"37.7963745","lng":"-122.4055142"},{"name":"Zam Zam","address":"1633 Haight Street","city":"San Francisco","state":"CA","zip":"94117","lat":"37.769619","lng":"-122.449291"},{"name":"Zebra Lounge","address":"447 Broadway","city":"San Francisco","state":"CA","zip":"94133","lat":"37.7979148","lng":"-122.4048266"},{"name":"Zeki&#x27;s Bar","address":"1319 California Street","city":"San Francisco","state":"CA","zip":"94109","lat":"37.7909425","lng":"-122.4161452"},{"name":"Zinc Bar","address":"1090 Point Lobos Avenue","city":"San Francisco","state":"CA","zip":"94121","lat":"37.778507","lng":"-122.5139808"},{"name":"Zita Wine Bar","address":"2862 24th Street","city":"San Francisco","state":"CA","zip":"94110","lat":"37.7528847","lng":"-122.409598"},{"name":"Zombie Village","address":"441 Jones Street","city":"San Francisco","state":"CA","zip":"94102","lat":"37.7855303","lng":"-122.4132072"}]
